fullname,shortname,number,category,vid_uchrezhdeniya,organiz_pravov_forma,podchinenie,address,Latitude,Longitude,telephone,email
 Государственное бюджетное образовательное учреждение города Москвы детский сад комбинированного вида № 1439, ГБОУ детский сад № 1439,1 439, Дошкольное образовательное учреждение, Детский сад компенсирующего вида, Бюджетное, Северо-Восточное окружное управление образования," ""127273 г. Москва, ул. Отрадная, д. 5 ""Б""",55.8591187,37.6076187,(499) 907-63-66, detsad1439@mail.ru
 Государственное бюджетное образовательное учреждение города Москвы детский сад № 938, ГБОУ детский сад № 938,938, Дошкольное образовательное учреждение, Детский сад, Бюджетное, Северо-Восточное окружное управление образования," 127349, город Москва, улица Лескова, дом 6 Г",55.8970746,37.5925685,(499) 909-00-44, detskiysad938@yandex.ru
 Государственное бюджетное образовательное учреждение города Москвы детский сад компенсирующего вида № 1243, ГБОУ детский сад № 1243,1 243, Дошкольное образовательное учреждение, Детский сад компенсирующего вида, Бюджетное, Юго-Западное окружное управление образования," 119333, г. Москва, ул. Фотиевой, дом 8",55.70100369999999,37.5623493,8(499)137-35-75, dou1243@ou.mosuzedu.ru; tngulakova@bk.ru
 Государственное бюджетное образовательное учреждение города Москвы детский сад № 1432, ГБОУ детский сад № 1432,1 432, Дошкольное образовательное учреждение, Детский сад, Бюджетное, Юго-Западное окружное управление образования," 119331, г.Москва, улица Марии Ульяновой, дом 17, корпус 1",55.680765,37.5203819,8(499)138-38-47, dou1432@ou.mosuzedu.ru
 Государственное бюджетное образовательное учреждение города Москвы детский сад № 824, ГБОУ детский сад № 824,824, Дошкольное образовательное учреждение, Детский сад, Бюджетное, Западное окружное управление образования," 121615, г.Москва, ул. Ельнинская, д. 16",55.7386473,37.4240156,(499) 141-75-87, dou824@bk.ru
 Государственное бюджетное образовательное учреждение города Москвы детский сад № 2703, ГБОУ детский сад № 2703,2 703, Дошкольное образовательное учреждение, Детский сад, Бюджетное, Северо-Восточное окружное управление образования," 127495 город Москва, Дмитровское шоссе, д.165Е, корпус 13",55.9280822,37.5439964,(499) 661-32-73, dou.2703@yandex.ru
 Государственное бюджетное образовательное учреждение города Москвы детский сад № 2435, ГБОУ детский сад № 2435,2 435, Дошкольное образовательное учреждение, Детский сад, Бюджетное, Юго-Западное окружное управление образования," 117628, г.Москва, ул. Грина, дом 36, корпус 1",55.5694205,37.56731440000001,(495) 714 96 13, skazka2435@mosuzedu.ru
 Государственное бюджетное образовательное учреждение города Москвы детский сад комбинированного вида № 1041, ГБОУ детский сад № 1041,1 041, Дошкольное образовательное учреждение, Детский сад комбинированного вида, Бюджетное, Восточное окружное управление образования," 107150, г. Москва, Погонный проезд, д.27",55.8184477,37.7170561,(499) 169-43-51, rocinka1041@mail.ru
 Государственное бюджетное образовательное учреждение города Москвы детский сад № 2698, ГБОУ детский сад № 2698,2 698, Дошкольное образовательное учреждение, Детский сад, Бюджетное, Западное окружное управление образования," 119501 г.Москва, ул. Матвеевская, д. 4, корп. 5",55.7062651,37.4727983,(499) 233-02-72, det2698@yandex.ru
 Государственное бюджетное образовательное учреждение города Москвы детский сад № 2730, ГБОУ детский сад № 2730,2 730, Дошкольное образовательное учреждение, Детский сад, Бюджетное, Северное окружное управление образования," 125057, Лениградский проспект, д. 75Д",55.805059,37.5122287,(499) 198-12-90, gbou-ds.2730@yandex.ru
 Государственное бюджетное образовательное учреждение города Москвы детский сад общеразвивающего вида № 1626, ГБОУ детский сад № 1626,1 626, Дошкольное образовательное учреждение, Детский сад общеразвивающего вида с приоритетным осуществлением деятельности по одному из направлений развития детей, Бюджетное, Северо-Восточное окружное управление образования," 127562, город Москва, улица Санникова, дом 5, корпус 2",55.8610897,37.5938116,(499) 201-30-00, Sch1626@yandex.ru
 Государственное бюджетное образовательное учреждение города Москвы детский сад № 796, ГБОУ детский сад № 796,796, Дошкольное образовательное учреждение, Детский сад, Бюджетное, Юго-Западное окружное управление образования," 117321, г.Москва, улица Профсоюзная, дом 152А",55.6236194,37.5020266,8-495-338-27-00, DOU796@mail.ru
 Государственное бюджетное образовательное учреждение города Москвы детский сад присмотра и оздоровления № 403, ГБОУ детский сад № 403,403, Дошкольное образовательное учреждение, Детский сад присмотра и оздоровления, Бюджетное, Северо-Восточное окружное управление образования," 127081, г. Москва, ул. Полярная, д. 7, кор. 3",55.873379,37.6316464,(499) 477-25-98, ds403@yandex.ru
 Государственное бюджетное образовательное учреждение города Москвы детский сад № 295, ГБОУ детский сад № 295,295, Дошкольное образовательное учреждение, Детский сад, Бюджетное, Центральное окружное управление образования," 115035, г. Москва, ул.Садовническая, д. 73, стр. 24",55.736266,37.643803,(495) 951-54-65, d-s295@yandex.ru
 Государственное бюджетное образовательное учреждение города Москвы детский сад № 160, ГБОУ детский сад № 160,160, Дошкольное образовательное учреждение, Детский сад, Бюджетное, Западное окружное управление образования," 121248 г. Москва, Кутузовский проспект, д. 13",55.7477751,37.5591045,(499) 243-61-20, dou160@mail.ru
 Государственное бюджетное образовательное учреждение города Москвы детский сад № 1611, ГБОУ детский сад № 1611,1 611, Дошкольное образовательное учреждение, Детский сад, Бюджетное, Северное окружное управление образования," 125635, г. Москва, улица Талдомская, дом 2Е",55.8708314,37.520135,(499) 906-82-44, abramovagou1611@yandex.ru
 Государственное бюджетное образовательное учреждение города Москвы детский сад № 2718, ГБОУ детский сад № 2718,2 718, Дошкольное образовательное учреждение, Детский сад, Бюджетное, Центральное окружное управление образования," 127055 город Москва Тихвинский переулок д. 16, стр.1",55.78724099999999,37.5997048,(499) 250-18-95, detsad_2718@mail.ru
 Государственное бюджетное образовательное учреждение города Москвы детский сад № 900, ГБОУ детский сад № 900,900, Дошкольное образовательное учреждение, Детский сад, Бюджетное, Южное окружное управление образования," 117535 г.Москва, Россошанский пр-д, д.5 А",55.5990284,37.6099277,(495) 382-82-72, dou900@sinergi.ru
 Государственное бюджетное образовательное учреждение города Москвы детский сад № 916, ГБОУ детский сад № 916,916, Дошкольное образовательное учреждение, Детский сад, Бюджетное, Южное окружное управление образования," 117545 г.Москва, ул.Подольских курсантов, д.8а",55.6053662,37.6147452,(495) 381-85-28, dou916@sinergi.ru
 Государственное бюджетное образовательное учреждение города Москвы детский сад № 15, ГБОУ детский сад № 15, 15, Дошкольное образовательное учреждение, Детский сад, Бюджетное, Северо-Восточное окружное управление образования," 129337, город Москва, Ярославское шоссе, дом 8, корпус 4",55.85266319999999,37.6872969,(499) 183-27-29, gbou15@mail.ru
 Государственное бюджетное образовательное учреждение города Москвы детский сад компенсирующего вида № 2278, ГБОУ детский сад № 2278,2 278, Дошкольное образовательное учреждение, Детский сад компенсирующего вида, Бюджетное, Юго-Восточное окружное управление образования," 109153, г.Москва, ул. Моршанская, д.2, к. 2",55.697177,37.856526,(495) 705-00-01, galina-2278@mail.ru; www.detsad2278.ru
 Государственное бюджетное образовательное учреждение города Москвы детский сад общеразвивающего вида № 960, ГБОУ детский сад № 960,960, Дошкольное образовательное учреждение, Детский сад общеразвивающего вида с приоритетным осуществлением деятельности по одному из направлений развития детей, Бюджетное, Южное окружное управление образования," 115404 Г. Москва,ул. Касимовская, д.15,к.2",55.5975335,37.6574405,(495) 326-11-74, dou960@sinergi.ru
" Государственное бюджетное образовательное учреждение города Москвы центр развития ребенка - детский сад № 1842 ""Пересвет"""," ГБОУ ЦРР-детский сад № 1842 ""Пересвет""",1 842, Дошкольное образовательное учреждение, Центр развития ребенка – детский сад, Бюджетное, Центральное окружное управление образования," 123056, г. Москва, ул. Б. Грузинская, д. 67, стр. 1",55.773343,37.584425,(499) 254-40-79, per1842@yandex.ru; do.peresvet1842@yandex.ru
 Государственное бюджетное образовательное учреждение города Москвы детский сад комбинированного вида № 594, ГБОУ детский сад № 594,594, Дошкольное образовательное учреждение, Детский сад комбинированного вида, Бюджетное, Северо-Восточное окружное управление образования, 129282 город Москва улица Тихомирова дом 13,55.8859241,37.6498795,(499) 476-25-38, det.sad_594@mail.ru
 Государственное бюджетное образовательное учреждение города Москвы центр развития ребенка - детский сад № 463, ГБОУ ЦРР-детский сад № 463,463, Дошкольное образовательное учреждение, Центр развития ребенка – детский сад, Бюджетное, Западное окружное управление образования," 119 454 г.Москва, ул.Лобачевского, д. 56",55.6737259,37.4932502,(499) 431-58-10, crr463@mai.ru
 Государственное бюджетное образовательное учреждение города Москвы детский сад №2442, ГБОУ детский сад №2442,2 442, Дошкольное образовательное учреждение, Детский сад, Бюджетное, Восточное окружное управление образования," 107065,г.Москва,ул. Камчатская,дом 23",55.8291305,37.8220676,(495) 469-93-12, r2442@mail.ru
 Государственное бюджетное образовательное учреждение города Москвы детский сад № 2453, ГБОУ детский сад №2453,2 453, Дошкольное образовательное учреждение, Детский сад, Бюджетное, Юго-Западное окружное управление образования," 117628, г. Москва, ул. Грина, дом 30, корпус 1",55.56878099999999,37.570061,8 (495) 711-01-05, dou2453@mosuzedu.ru
 Государственное бюджетное образовательное учреждение города Москвы центр развития ребенка - детский сад № 2574, ГБОУ ЦРР - детский сад № 2574,2 574, Дошкольное образовательное учреждение, Центр развития ребенка – детский сад, Бюджетное, Северное окружное управление образования," 125475, г.Москва, улица Дыбенко, д. 34А",55.875598,37.486756,(499) 767-33-01, ashirova1263@inbox.ru
 Государственное бюджетное образовательное учреждение города Москвы детский сад № 1416, ГБОУ детский сад № 1416,1 416, Дошкольное образовательное учреждение, Детский сад, Бюджетное, Северо-Восточное окружное управление образования," 127642, город Москва, проезд Шокальского, дом 18 А",55.87886839999999,37.6475848,(499) 476-56-92, gou1416@rambler.ru; dou1416@rambler.ru
 Государственное бюджетное образовательное учреждение города Москвы детский сад комбинированного вида № 5, ГБОУ детский сад № 5, 5, Дошкольное образовательное учреждение, Детский сад комбинированного вида, Бюджетное, Северо-Восточное окружное управление образования," 127322, город Москва, улица Фонвизина, дом 14 корпус 1",55.82056129999999,37.5878516,(495) 610-13-85, dou_ds5@mail.ru
 Государственное бюджетное образовательное учреждение города Москвы детский сад № 608, ГБОУ детский сад № 608,608, Дошкольное образовательное учреждение, Детский сад, Бюджетное, Западное окружное управление образования," 121609, г.Москва, ул. Крылатские холмы, д. 25, корп. 1",55.7565572,37.4144153,(495) 412-22-94, detsad1479@mail.ru
 Государственное бюджетное образовательное учреждение города Москвы детский сад комбинированного вида № 2037, ГБОУ детский сад № 2037,2 037, Дошкольное образовательное учреждение, Детский сад комбинированного вида, Бюджетное, Юго-Западное окружное управление образования," 117216, г. Москва, ул. Старокачаловская, д. 3 Б",55.5677041,37.582842,8 - 495 - 711-51-09," dou2037@ou.mosuzedu.ru, detsadik2037@inbox.ru"
 Государственное бюджетное образовательное учреждение города Москвы детский сад № 1392, ГБОУ детский сад № 1392,1 392, Дошкольное образовательное учреждение, Детский сад, Бюджетное, Юго-Западное окружное управление образования," 117437, г. Москва, улица Миклухо-Маклая, дом 18А",55.6440072,37.5174366,330-78-38, dou1392@ou.mosuzedu.ru
 Государственное бюджетное образовательное учреждение города Москвы детский сад № 1930, ГБОУ детский сад № 1930,1 930, Дошкольное образовательное учреждение, Детский сад, Бюджетное, Центральное окружное управление образования," 123317 г. Москва, ул. Подвойского, д. 18А",55.7634025,37.5382652,(499) 256-02-22, gou1930@yandex.ru
 Государственное бюджетное образовательное учреждение города Москвы детский сад № 2550, ГБОУ детский сад № 2550,2 550, Дошкольное образовательное учреждение, Детский сад, Бюджетное, Восточное окружное управление образования," 111625, г. Москва, ул. Дмитриевского, д. 3а",55.7100655,37.8831532,(499) 721-69-01, det-sad2550@yandex.ru
 Государственное бюджетное образовательное учреждение города Москвы детский сад компенсирующего вида № 2328, ГБОУ детский сад № 2328,2 328, Дошкольное образовательное учреждение, Детский сад компенсирующего вида, Бюджетное, Юго-Восточное окружное управление образования," 109341, г. Москва Перерва ул., 52 корп.2",55.655845,37.7467329,(495) 347-88-41,  detsad-2328@yandex.ru
 Государственное бюджетное образовательное учреждение города Москвы детский сад комбинированного вида № 1848, ГБОУ детский сад № 1848,1 848, Дошкольное образовательное учреждение, Детский сад комбинированного вида, Бюджетное, Северо-Восточное окружное управление образования," 129347, город Москва, улица Палехская, дом 135",55.8764055,37.7107849,(499) 188-03-65, detсad1848@rambler.ru
 Государственное бюджетное образовательное учреждение города Москвы детский сад № 2115, ГБОУ детский сад № 2115,2 115, Дошкольное образовательное учреждение, Детский сад, Бюджетное, Северное окружное управление образования," 125040, г. Москва, улица Расковой, д. 1А",55.78709629999999,37.5705791,#Н/Д, ds21@mail.ru
 Государственное бюджетное образовательное учреждение города Москвы детский сад общеразвивающего вида № 91, ГБОУ детский сад № 91, 91, Дошкольное образовательное учреждение, Детский сад общеразвивающего вида с приоритетным осуществлением деятельности по одному из направлений развития детей, Бюджетное, Северное окружное управление образования," 125212, г. Москва, Ленинградское шоссе, дом 29А",55.830196,37.485975,(499) 150-15-00, detsad-91@mail.ru
 Государственное бюджетное образовательное учреждение города Москвы детский сад № 2298, ГБОУ детский сад № 2298,2 298, Дошкольное образовательное учреждение, Детский сад общеразвивающего вида с приоритетным осуществлением деятельности по одному из направлений развития детей, Бюджетное, Северное окружное управление образования," 127247, г. Москва, Бескудниковский бульвар, дом 48-а",55.87370000000001,37.5419798,(499) 488-50-53, novikova2298@mail.ru
 Государственное бюджетное образовательное учреждение города Москвы детский сад общеразвивающего вида № 133, ГБОУ детский сад № 133,133, Дошкольное образовательное учреждение, Детский сад общеразвивающего вида с приоритетным осуществлением деятельности по одному из направлений развития детей, Бюджетное, Юго-Восточное окружное управление образования," 109456, г. Москва, 4-й Вешняковский пр-д, д.6",55.718895,37.795915,(495) 371-63-20, gou133@yandex.ru
 Государственное бюджетное образовательное учреждение города Москвы детский сад общеразвивающего вида № 1823, ГБОУ детский сад № 1823,1 823, Дошкольное образовательное учреждение, Детский сад общеразвивающего вида с приоритетным осуществлением деятельности по одному из направлений развития детей, Бюджетное, Южное окружное управление образования," 115522 г. Москва,Кантемировская,д.16,у.4",55.6398363,37.66745770000001,(499) 320-36-55, dou1823@sinergi.ru
 Государственное бюджетное образовательное учреждение города Москвы детский сад компенсирующего вида № 1800, ГБОУ детский сад № 1800,1 800, Дошкольное образовательное учреждение, Детский сад компенсирующего вида, Бюджетное, Западное окружное управление образования," 119634, г.Москва, ул. Шолохова, д. 6, корп. 4",55.6377435,37.3607556,(495) 731-16-77, dou1800@mail.ru; dskvp1800.mskzapad.ru
 Государственное бюджетное образовательное учреждение города Москвы детский сад комбинированного вида № 2658, ГБОУ детский сад № 2658,2 658, Дошкольное образовательное учреждение, Детский сад комбинированного вида, Бюджетное, Северо-Восточное окружное управление образования," 127204, город .Москва, улица 9-я Северная линия, дом 25",55.9329065,37.5524337,(499) 761-07-31, dou.2658@yandex.ru
 Государственное бюджетное образовательное учреждение города Москвы детский сад № 1834, ГБОУ детский сад № 1834,1 834, Дошкольное образовательное учреждение, Детский сад, Бюджетное, Южное окружное управление образования," 117587 г. Москва, ул.Кировоградская, д.9а",55.624095,37.6126576,(495) 313-02-59, dou1834@sinergi.ru
 Государственное бюджетное образовательное учреждение города Москвы детский сад комбинированного вида № 685, ГБОУ детский сад № 685,685, Дошкольное образовательное учреждение, Детский сад комбинированного вида, Бюджетное, Западное окружное управление образования," 121467, г.Москва, ул. Молдавская, д. 10",55.7316744,37.4371973,(499) 141-10-72, dou685@mail.ru
 Государственное бюджетное образовательное учреждение города Москвы детский сад комбинированного вида № 2516, ГБОУ детский сад № 2516,2 516, Дошкольное образовательное учреждение, Детский сад комбинированного вида, Бюджетное, Западное окружное управление образования," 119027, г.Москва, пос. Внуково, ул. Центральная, д. 11, корп. 1",55.6124904,37.2897498,(495) 436-26-17, gou2516@ya.ru
 Государственное бюджетное образовательное учреждение города Москвы детский сад комбинированного вида № 787, ГБОУ детский сад № 787,787, Дошкольное образовательное учреждение, Детский сад комбинированного вида, Бюджетное, Северное окружное управление образования," 125565, г. Москва, Конаковский проезд, дом 11а",55.8475151,37.48003,(499) 747-68-09, 787ds@mail.ru; ds502@mail.ru
 Государственное бюджетное образовательное учреждение города Москвы детский сад комбинированного вида № 1892, ГБОУ детский сад № 1892,1 892, Дошкольное образовательное учреждение, Детский сад комбинированного вида, Бюджетное, Западное окружное управление образования," 121165 г. Москва, ул. Дунаевского, д.5",55.7413216,37.5483495,(499) 249-22-52, dou1892@yandex.ru
 Государственное бюджетное образовательное учреждение города Москвы детский сад комбинированного вида № 1698, ГБОУ детский сад № 1698,1 698, Дошкольное образовательное учреждение, Детский сад комбинированного вида, Бюджетное, Западное окружное управление образования," 119620, г.Москва, ул. Волынская, д. 6",55.644755,37.4127,(495) 934-86-22, 1698-08@maili.ru
 Государственное бюджетное образовательное учреждение города Москвы детский сад компенсирующего вида № 2356, ГБОУ детский сад № 2356,2 356, Дошкольное образовательное учреждение, Детский сад компенсирующего вида, Бюджетное, Южное окружное управление образования," 115612 г. Москва, Братеевская ул., д.10,к.2",55.631816,37.7607739,(495) 342-98-98, dou2356@sinergi.ru
 Государственное образовательное учреждение детский сад № 2541, ГОУ детский сад № 2541,2 541, Дошкольное образовательное учреждение, Детский сад, Бюджетное, Западное окружное управление образования," 119619 Производственная улица, стр. 4",55.6487296,37.3866379,#Н/Д, нет
 Государственное бюджетное образовательное учреждение города Москвы детский сад комбинированного вида № 1880, ГБОУ детский сад № 1880,1 880, Дошкольное образовательное учреждение, Детский сад комбинированного вида, Бюджетное, Западное окружное управление образования," 119620 г.Москва, ул. Щорса, д. 4, корп. 4",55.6476451,37.4038718,(495) 439-30-94, DetSad1880@yandex.ru
 Государственное бюджетное образовательное учреждение города Москвы детский сад № 2463, ГБОУ детский сад № 2463,2 463, Дошкольное образовательное учреждение, Детский сад, Бюджетное, Юго-Западное окружное управление образования," 117041, г. Москва, ул. Адмирала Руднева, дом 12, корпус 1",55.541751,37.52398,714-21-00, cad2463@mail.ru
 Государственное бюджетное образовательное учреждение города Москвы детский сад компенсирующего вида № 2185, ГБОУ детский сад № 2185,2 185, Дошкольное образовательное учреждение, Детский сад компенсирующего вида, Бюджетное, Северо-Восточное окружное управление образования," 127081, город Москва, Ясный проезд, дом 7А",55.87292799999999,37.625781,(499) 473-24-35, kindergarten2185@yandex.ru; dou2185@yandex.ru
 Государственное бюджетное образовательное учреждение города Москвы детский сад № 2724, ГБОУ детский сад № 2724,2 724, Дошкольное образовательное учреждение, Детский сад, Бюджетное, Юго-Восточное окружное управление образования," 109125, г. Москва, Волжский бульвар, д. 18, корп. 4",55.7110075,37.739163,(499) 177-79-10, planetadetstva2724@yandex.ru
 Государственное бюджетное образовательное учреждение города Москвы детский сад комбинированного вида № 1828, ГБОУ детский сад № 1828,1 828, Дошкольное образовательное учреждение, Детский сад комбинированного вида, Бюджетное, Центральное окружное управление образования," 109316 г. Москва, ул.Стройковская, д.5",55.73358959999999,37.6751787,(495) 670-04-65, GOU1828@yandex.ru; ds1828@mail.ru
 Государственное бюджетное образовательное учреждение города Москвы детский сад № 1382, ГБОУ детский сад № 1382,1 382, Дошкольное образовательное учреждение, Детский сад, Бюджетное, Западное окружное управление образования," 119607, г.Москва, ул.Лобачевского, д. 96, корп. 1",55.68227450000001,37.482825,(495) 931-41-00, ds1382@yandex.ru
 Государственное бюджетное образовательное учреждение города Москвы детский сад № 2702, ГБОУ детский сад № 2702,2 702, Дошкольное образовательное учреждение, Детский сад, Бюджетное, Северо-Восточное окружное управление образования," 127495, город Москва, Дмитровское шоссе, дом 165Е, корпус 2",55.925061,37.542575,(499) 661-50-26, dou.2702@yandex.ru
 Государственное бюджетное образовательное учреждение города Москвы детский сад № 823, ГБОУ детский сад № 823,823, Дошкольное образовательное учреждение, Детский сад, Бюджетное, Северное окружное управление образования," 125130, город Москва, улица Зои и Александра Космодемьянских,дом 35А",55.82546290000001,37.5248131,(499) 231-71-05, gbou823yandex.ru; tat-nagajceva@yandex.ru
 Государственное бюджетное образовательное учреждение города Москвы детский сад № 2707, ГБОУ детский сад № 2707,2 707, Дошкольное образовательное учреждение, Детский сад, Бюджетное, Зеленоградское окружное управление образования," 124617, г. Москва, Зеленоград, корп.1463",55.9846714,37.1828689,(499) 738-36-66, d2707@zou.ru
 Государственное бюджетное образовательное учреждение города Москвы детский сад комбинированного вида № 1560, ГБОУ детский сад № 1560,1 560, Дошкольное образовательное учреждение, Детский сад комбинированного вида, Бюджетное, Восточное окружное управление образования," 107014, г. Москва, ул. Охотничья, д.8",55.7957416,37.684602,(499) 269-59-20, ds_1560@mail.ru
 Государственное бюджетное образовательное учреждение города Москвы детский сад комбинированного вида № 1465, ГБОУ детский сад № 1465,1 465, Дошкольное образовательное учреждение, Детский сад комбинированного вида, Бюджетное, Центральное окружное управление образования," 123317 Москва, Стрельбищенский пер., дом 21А",55.7633129,37.5390574,(499) 256-14-46, nashdom1465@mail.ru
 Государственное бюджетное образовательное учреждение города Москвы детский сад комбинированного вида № 675, ГБОУ детский сад № 675,675, Дошкольное образовательное учреждение, Детский сад комбинированного вида, Бюджетное, Западное окружное управление образования," 119571, г.Москва, ул. 26 Бакинских комиссаров, д. 3, корп. 2",55.656329,37.489735,(495) 433-60-13, SAD-675@yandex.ru; http://dskv675.mskzapad.ru/
 Государственное бюджетное образовательное учреждение города Москвы детский сад комбинированного вида № 1917, ГБОУ детский сад № 1917,1 917, Дошкольное образовательное учреждение, Детский сад комбинированного вида, Бюджетное, Северное окружное управление образования," 127083, г. Москва, улица 8 Марта, дом 6 ""а""",55.80162499999999,37.556771,(495) 612-63-61, dssav1917@soudo.ru; 1917ds@mail.ru
 Государственное бюджетное образовательное учреждение города Москвы детский сад комбинированного вида № 2565, ГБОУ детский сад № 2565,2 565, Дошкольное образовательное учреждение, Детский сад комбинированного вида, Бюджетное, Восточное окружное управление образования," 105122, г. Москва, ул.3-я Парковая , д.61А",55.8069097,37.7800587,(499) 748-27-10, ds2565@mail.ru; gouds2517@mail.ru; detskiysad55@mail.ru
 Государственное бюджетное образовательное учреждение города Москвы детский сад № 2589, ГБОУ детский сад №2589,2 589, Дошкольное образовательное учреждение, Детский сад, Бюджетное, Юго-Западное окружное управление образования," 117041, г. Москва, ул. Академика Понтрягина, дом 27, корпус 1",55.5316511,37.502118,(495)715-13-80, dou2589@mail.ru
 Государственное бюджетное образовательное учреждение города Москвы детский сад комбинированного вида № 741, ГБОУ детский сад № 741,741, Дошкольное образовательное учреждение, Детский сад комбинированного вида, Бюджетное, Южное окружное управление образования," 117535 г.Москва,ул. Дорожная,д.26,к.3",55.5981401,37.6152602,(495) 382-73-54, dou741@sinergi.ru
 Государственное бюджетное образовательное учреждение города Москвы детский сад № 2501, ГБОУ детский сад № 2501,2 501, Дошкольное образовательное учреждение, Детский сад, Бюджетное, Южное окружное управление образования," 117452 г. Москва, Чонгарский б-р.д.13",55.6519729,37.6096279,(499) 610-04-22, dou2501@sinergi.ru
 Государственное бюджетное образовательное учреждение города Москвы детский сад компенсирующего вида № 1210, ГБОУ детский сад № 1210,1 210, Дошкольное образовательное учреждение, Детский сад, Бюджетное, Юго-Западное окружное управление образования," 117261, г.Москва, ул. Генерала Тюленева, дом 25, корп. 2",55.619834,37.489737,(495) 339-88-44, dou1210@mosuzedu.ru
" Государственное бюджетное образовательное учреждение города Москвы центр развития ребенка - детский сад № 2429 ""Теремок"""," ГБОУ ЦРР - детский сад № 2429 ""Теремок""",2 429, Дошкольное образовательное учреждение, Центр развития ребенка – детский сад, Бюджетное, Северное окружное управление образования," 125493, г. Москва, улица Пулковская, дом 4А",55.8441631,37.4869266,(495) 708-03-09, gou-ds-2429@mail.ru; teremok_2429@mail.ru
 Государственное бюджетное образовательное учреждение города Москвы детский сад компенсирующего вида № 977, ГБОУ детский сад № 977,977, Дошкольное образовательное учреждение, Детский сад компенсирующего вида, Бюджетное, Северо-Восточное окружное управление образования," 127576, город Москва, улица Илимская, дом 2 Б",55.89259879999999,37.5709892,(499) 200-62-29, gou977@mail.ru
 Государственное бюджетное образовательное учреждение города Москвы детский сад компенсирующего вида № 94, ГБОУ детский сад № 94, 94, Дошкольное образовательное учреждение, Детский сад компенсирующего вида, Бюджетное, Восточное окружное управление образования," 111538, г. Москва, улица Вешняковская, дом 41А",55.717669,37.8239421,(499) 373-93-87, vihsenka2008@yandex.ru; http://dskvp94.mskobr.ru/; popovatat94@yandex.ru
 Государственное бюджетное образовательное учреждение города Москвы центр развития ребенка - детский сад № 731, ГБОУ ЦРР - детский сад № 731,731, Дошкольное образовательное учреждение, Центр развития ребенка – детский сад, Бюджетное, Южное окружное управление образования," 115404 г. Москва, ул. Бирюлевская,д.23,к.2",55.593933,37.668168,(495) 326-98-88, dou731@sinergi.ru
 Государственное бюджетное образовательное учреждение города Москвы детский сад № 2153, ГБОУ детский сад № 2153,2 153, Дошкольное образовательное учреждение, Детский сад, Бюджетное, Северо-Восточное окружное управление образования," 127560, город Москва, улица Коненкова, дом 19 Б",55.8931041,37.6077218,(499) 206-95-11, dou-2153@yandex.ru
 Государственное бюджетное образовательное учреждение города Москвы детский сад № 2620, ГБОУ детский сад № 2620,2 620, Дошкольное образовательное учреждение, Детский сад, Бюджетное, Юго-Западное окружное управление образования," 117218, г. Москва, ул. Кедрова, дом 22, корп. 1",55.6809166,37.575851,(495) 718-99-29, gou2620@gmail.com
 Государственное бюджетное образовательное учреждение города Москвы детский сад № 357, ГБОУ детский сад № 357,357, Дошкольное образовательное учреждение, Детский сад, Бюджетное, Восточное окружное управление образования," 107143, г. Москва Открытое шоссе, дом 23 Б",55.8253121,37.7537112,(499) 167-60-45, detsad357@yandex.ru
 Государственное бюджетное образовательное учреждение города Москвы детский сад общеразвивающего вида № 370, ГБОУ детский сад № 370,370, Дошкольное образовательное учреждение, Детский сад общеразвивающего вида с приоритетным осуществлением деятельности по одному из направлений развития детей, Бюджетное, Северо-Восточное окружное управление образования," 127566 город Москва, улица Бестужевых, дом 13-а",55.8699725,37.6030907,(499) 201-92-55, gbou370@yandex.ru
 Государственное бюджетное образовательное учреждение города Москвы детский сад № 347, ГБОУ детский сад № 347,347, Дошкольное образовательное учреждение, Детский сад общеразвивающего вида с приоритетным осуществлением деятельности по одному из направлений развития детей, Бюджетное, Северное окружное управление образования," 125445, г. Москва, Валдайский проезд, дом 18",55.8713441,37.4664496,(499) 457-63-91, gouds347@mail.ru
 Государственное бюджетное образовательное учреждение города Москвы центр развития ребенка - детский сад № 2413, ГБОУ ЦРР - детский сад № 2413,2 413, Дошкольное образовательное учреждение, Центр развития ребенка – детский сад, Бюджетное, Юго-Западное окружное управление образования," 117628, г.Москва, ул. Старокачаловская, дом 22, корпус 1",55.5712966,37.5857746,(495)714-87-72, child2413@yandex.ru
 Государственное бюджетное образовательное учреждение города Москвы детский сад комбинированного вида № 1253, ГБОУ детский сад № 1253,1 253, Дошкольное образовательное учреждение, Детский сад, Бюджетное, Северное окружное управление образования," 127422, г. Москва, ул. Тимирязевская, д. 24А",55.8185223,37.5635565,(495) 639-87-68, ds1253@mail.ru
 Государственное бюджетное образовательное учреждение города Москвы детский сад общеразвивающего вида № 1869, ГБОУ детский сад № 1869,1 869, Дошкольное образовательное учреждение, Детский сад общеразвивающего вида с приоритетным осуществлением деятельности по одному из направлений развития детей, Бюджетное, Западное окружное управление образования," 119634 г.Москва, ул. Шолохова, д. 9, корпус 1",55.6385805,37.3460676,(495) 733-67-29, dou1869@mail.ru
 Государственное бюджетное образовательное учреждение города Москвы детский сад № 1853, ГБОУ детский сад № 1853,1 853, Дошкольное образовательное учреждение, Детский сад, Бюджетное, Западное окружное управление образования," 119415, г. Москва, ул. Удальцова, д. 10 к.1",55.675137,37.514393,(499) 131-61-83, dou1853@mail.ru
 Государственное бюджетное образовательное учреждение города Москвы детский сад №2577, ГБОУ детский сад № 2577,2 577, Дошкольное образовательное учреждение, Детский сад, Бюджетное, Северо-Восточное окружное управление образования," 129337 город Москва, Ярославское шоссе дом № 118 корпус 4",55.868745,37.71193100000001,(499) 183-59-16, dou2577@yandex.ru
 Государственное бюджетное образовательное учреждение города Москвы детский сад № 2397, ГБОУ детский сад № 2397,2 397, Дошкольное образовательное учреждение, Детский сад, Бюджетное, Юго-Восточное окружное управление образования," 109341, г. Москва, ул. Перерва, дом 35",55.659278,37.7447725,(495) 349-83-80, ds2397@mail.ru
 Государственное бюджетное образовательное учреждение города Москвы детский сад компенсирующего вида № 1126, ГБОУ детский сад № 1126,1 126, Дошкольное образовательное учреждение, Детский сад компенсирующего вида, Бюджетное, Зеленоградское окружное управление образования," 124482, г.Москва, Зеленоград, корп. 331А",55.978031,37.1829072,(499) 734-13-83, d1126@zou.ru
 Государственное бюджетное образовательное учреждение города Москвы центр развития ребенка - детский сад № 2617, ГБОУ ЦРР -детский сад № 2617,2 617, Дошкольное образовательное учреждение, Центр развития ребенка – детский сад, Бюджетное, Центральное окружное управление образования," 105094 г.Москва, Госпитальный вал, 3А",55.77184500000001,37.704062,(499) 263-01-32, ds2617@yandex.ru
 Государственное бюджетное образовательное учреждение города Москвы детский сад комбинированного вида №992, ГБОУ детский сад № 992,992, Дошкольное образовательное учреждение, Детский сад комбинированного вида, Бюджетное, Центральное окружное управление образования," 109544 Добровольческая улица, 28,стр.1",55.741961,37.6690331,(495) 911-84-81, dc992@yandex.ru
 Государственное бюджетное образовательное учреждение города Москвы детский сад № 1784, ГБОУ детский сад № 1784,1 784, Дошкольное образовательное учреждение, Детский сад, Бюджетное, Северо-Восточное окружное управление образования," 127572, город Москва, улица Абрамцевская, дом 13",55.90583419999999,37.5740372,(499) 908-95-81, dou.1784@yandex.ru
 Государственное бюджетное образовательное учреждение города Москвы детский сад № 1116, ГБОУ детский сад № 1116,1 116, Дошкольное образовательное учреждение, Детский сад, Бюджетное, Северо-Восточное окружное управление образования," 127543, город Москва, улица Корнейчука, дом 22А",55.899995,37.6150477,(499) 207-06-34, detsad1116@mail.ru
 Государственное бюджетное образовательное учреждение города Москвы детский сад комбинированного вида № 2386, ГБОУ детский сад № 2386,2 386, Дошкольное образовательное учреждение, Детский сад комбинированного вида, Бюджетное, Восточное окружное управление образования," 105122,г.Москва,Щелковское шоссе,д.14А",55.806026,37.7712811,(499) 163-18-42, gouds2386@yandex.ru
 Государственное бюджетное образовательное учреждение города Москвы детский сад № 158, ГБОУ детский сад № 158,118, Дошкольное образовательное учреждение, Детский сад, Бюджетное, Восточное окружное управление образования," 105215, г. Москва, Щелковское ш., д. 44 А",55.8083559,37.7913618,(499) 164-46-16, detsad158@yandex.ru
 Государственное бюджетное образовательное учреждение города Москвы детский сад комбинированного вида №239, ГБОУ детский сад № 239,239, Дошкольное образовательное учреждение, Детский сад комбинированного вида, Бюджетное, Восточное окружное управление образования," 105523, г. Москва, Щелковское шоссе, д. 82 А",55.8094841,37.81441239999999,(495) 468-40-02, detsad239@mail.ru; dskv239.mskobr.ru
 Государственное бюджетное образовательное учреждение города Москвы детский сад общеразвивающего вида с приоритетным осуществлением деятельности по познавательно-речевому развитию детей №1689, ГБОУ г. Москвы детский сад № 1689,1 689, Дошкольное образовательное учреждение, Детский сад общеразвивающего вида с приоритетным осуществлением деятельности по одному из направлений развития детей, Бюджетное, Восточное окружное управление образования," 111672, г. Москва, ул. Городецкая, д. 9 А",55.7407214,37.8699444,(495) 702-32-83, marina-hom@yandex.ru
 Государственное бюджетное образовательное учреждение города Москвы центр развития ребенка - детский сад № 26, ГБОУ ЦРР - детский сад № 26, 26, Дошкольное образовательное учреждение, Детский сад общеразвивающего вида с приоритетным осуществлением деятельности по одному из направлений развития детей, Бюджетное, Южное окружное управление образования," 117534 г. Москва, ул.Кировоградская, 42а",55.600522,37.59589709999999,(495) 387-32-14, dou26@sinergi.ru
 Государственное бюджетное образовательное учреждение города Москвы детский сад комбинированного вида № 761, ГБОУ детский сад № 761,761, Дошкольное образовательное учреждение, Детский сад комбинированного вида, Бюджетное, Восточное окружное управление образования," 111538, г. Москва, ул. Вешняковская ,д. 25А",55.726359,37.8313162,(499) 374-00-40, detsad761@rambler.ru
 Государственное бюджетное образовательное учреждение города Москвы детский сад комбинированного вида № 434, ГБОУ детский сад № 434,434, Дошкольное образовательное учреждение, Детский сад комбинированного вида, Бюджетное, Восточное окружное управление образования," 105077,г.Москва,Измайловский бульвар,д.60/10",55.7965898,37.8135455,(495) 465-72-04, ds.434@yandex.ru
 Государственное бюджетное образовательное учреждение города Москвы детский сад комбинированного вида № 2447, ГБОУ детский сад № 2447,2 447, Дошкольное образовательное учреждение, Детский сад комбинированного вида, Бюджетное, Северо-Западное окружное управление образования," 125368, г. Москва, Ангелов переулок, д. 7, корп. 2",55.8515759,37.3492483,(495) 751-79-93,  dou2447@szouo.ru
 Государственное бюджетное образовательное учреждение города Москвы детский сад компенсирующего вида № 831, ГБОУ детский сад № 831,831, Дошкольное образовательное учреждение, Детский сад компенсирующего вида, Бюджетное, Северное окружное управление образования," 125008, г. Москва, улица Михалковская, дом 18",55.839056,37.5313421,(499) 154-20-46, gou831@yandex.ru
 Государственное бюджетное образовательное учреждение города Москвы детский сад № 317, ГБОУ детский сад № 317,317, Дошкольное образовательное учреждение, Детский сад общеразвивающего вида с приоритетным осуществлением деятельности по одному из направлений развития детей, Бюджетное, Северное окружное управление образования," 127206, г. Москва, улица Астрадамская, дом 11а",55.8140043,37.5615712,(495) 611-13-38, lady.sad317@yandex.ru
" Государственное бюджетное образовательное учреждение города Москвы Центр развития ребенка - детский сад № 2374 ""Родничок"""," ГОУ ЦРР - детский сад № 2374 ""Родничок""",2 374, Дошкольное образовательное учреждение, Центр развития ребенка – детский сад, Бюджетное, Южное окружное управление образования," 115580 г. Москва, Кустанайская д.14,к.2",55.6162722,37.75074860000001,(495) 396-01-85, dou2374@sinergi.ru
 Государственное бюджетное образовательное учреждение города Москвы детский сад общеразвивающего вида № 700, ГБОУ детский сад № 700,700, Дошкольное образовательное учреждение, Детский сад общеразвивающего вида с приоритетным осуществлением деятельности по одному из направлений развития детей, Бюджетное, Западное окружное управление образования," 121609, г. Москва, ул. Крылатские холмы, д. 17",55.7521158,37.4153842,(495) 413-35-55, dou1615@mail.ru
 Государственное автономное образовательное учреждение города Москвы детский сад комбинированного вида № 1036, ГАОУ детский сад № 1036,1 036, Дошкольное образовательное учреждение, Детский сад комбинированного вида, Автономное, Троицкое и новомосковское окружное управление образования," 143340, Москва Город, поселение Новофедоровское, деревня Яковлевское",55.4654985,36.9414087,#Н/Д, Madou-raduga25@yandex.ru
 Государственное бюджетное образовательное учреждение города Москвы центр развития ребенка - детский сад № 2528, ГБОУ ЦРР - детский сад № 2528,2 528, Дошкольное образовательное учреждение, Центр развития ребенка – детский сад, Бюджетное, Северное окружное управление образования," 125475, г. Москва, улица Дыбенко, дом 2А",55.8679884,37.4871171,(499) 767-16-60, ds2528@mail.ru
 Государственное бюджетное образовательное учреждение города Москвы детский сад № 2557, ГБОУ детский сад № 2557,2 557, Дошкольное образовательное учреждение, Детский сад, Бюджетное, Юго-Западное окружное управление образования," 117186, город Москва, улица Нагорная, дом 37, корпус 3",55.6697362,37.5948796,(499) 121-04-44, dou2557@ou.mosuzedu.ru
 Государственное бюджетное образовательное учреждение города Москвы детский сад комбинированного вида № 717, ГБОУ детский сад № 717,717, Дошкольное образовательное учреждение, Детский сад комбинированного вида, Бюджетное, Северное окружное управление образования," 127550, г. Москва, Дмитровское шоссе, дом 29, корпус 2",55.827926,37.570143,(499) 976-53-98, sadik717@mail.ru.
 Государственное бюджетное образовательное учреждение города Москвы детский сад комбинированного вида № 1486, ГБОУ детский сад № 1486,1 486, Дошкольное образовательное учреждение, Детский сад комбинированного вида, Бюджетное, Северное окружное управление образования," 127247, г. Москва, Дмитровское шоссе, дом 101А",55.8759319,37.5445241,(499) 489-30-52, ds1486@mail.ru
 Государственное бюджетное образовательное учреждение города Москвы детский сад № 1727, ГБОУ детский сад № 1727,1 727, Дошкольное образовательное учреждение, Детский сад, Бюджетное, Северное окружное управление образования," 125284, г. Москва, улица Поликарпова, дом 6",55.7774534,37.5538199,(495) 946-17-24, souo1727@mail.ru
 Государственное бюджетное образовательное учреждение города Москвы детский сад № 1693, ГБОУ детский сад № 1693,1 693, Дошкольное образовательное учреждение, Детский сад, Бюджетное, Восточное окружное управление образования," 111672, г. Москва, ул. Салтыковская, д.29",55.74089050000001,37.8731313,(495) 702-06-25, ds1693@mail.ru
 Государственное бюджетное образовательное учреждение города Москвы детский сад № 2526, ГБОУ детский сад № 2526,2 526, Дошкольное образовательное учреждение, Детский сад, Бюджетное, Северное окружное управление образования," 125252, г. Москва, Ходынский бульвар, дом 15, строение 2",55.787139,37.522525,(499) 740-53-14, dskhor2526@soudo.ru; ds2526@mail.ru
 Государственное бюджетное образовательное учреждение города Москвы детский сад компенсирующего вида № 2420, ГБОУ детский сад № 2420,2 420, Дошкольное образовательное учреждение, Детский сад компенсирующего вида, Бюджетное, Северо-Восточное окружное управление образования," 129327, город Москва, улица Ленская, дом 26, корпус 1",55.8680349,37.6583318,(495) 470-54-36, gou2420@rambler.ru
 Государственное бюджетное образовательное учреждение города Москвы детский сад комбинированного вида № 690, ГБОУ детский сад № 690,690, Дошкольное образовательное учреждение, Детский сад комбинированного вида, Бюджетное, Северное окружное управление образования," 125502, г. Москва, ул. Фестивальная, дом 61 А",55.86117729999999,37.4977427,(495) 455-74-19, gou690@yandex.ru
 Государственное бюджетное образовательное учреждение города Москвы детский сад с этнокультурным (татарским) компонентом образования № 318, ГБОУ детский сад № 318,318, Дошкольное образовательное учреждение, Детский сад с этнокультурным (национальным) компонентом образования, Бюджетное, Восточное окружное управление образования," 107065, Москва, ул. Сахалинская, д.4А",55.8258532,37.8188612,(495) 466-92-88, saniya318@yandex.ru; detsad318@yandex.ru
 Государственное бюджетное образовательное учреждение города Москвы детский сад комбинированного вида № 340, ГБОУ детский сад № 340,340, Дошкольное образовательное учреждение, Детский сад комбинированного вида, Бюджетное, Западное окружное управление образования," 121248, г.Москва, Кутузовский проспект, д. 5, корп. 3",55.7494942,37.5655048,(499) 243-63-25, detsad340@mail.ru
 Государственное бюджетное образовательное учреждение города Москвы детский сад № 261, ГБОУ детский сад № 261,261, Дошкольное образовательное учреждение, Детский сад, Бюджетное, Северо-Восточное окружное управление образования," 127224, город Москва, улица Широкая, дом 24А",55.8863373,37.6706006,(499) 479-15-18, cadik261@mail.ru
 Государственное бюджетное образовательное учреждение города Москвы детский сад общеразвивающего вида № 2255, ГБОУ детский сад № 2255,2 255, Дошкольное образовательное учреждение, Детский сад общеразвивающего вида с приоритетным осуществлением деятельности по одному из направлений развития детей, Бюджетное, Юго-Восточное окружное управление образования," 109153, г. Москва, Лермонтовский проспект, д. 14, корп. 3",55.6979907,37.8544785,(495) 705-11-98, ds_2255@mail.ru
 Государственное бюджетное образовательное учреждение города Москвы детский сад компенсирующего вида № 1707, ГБОУ детский сад № 1707,1 707, Дошкольное образовательное учреждение, Детский сад компенсирующего вида, Бюджетное, Северо-Восточное окружное управление образования," 129323, г. Москва, проезд Русанова, д.23, стр.1",55.855057,37.64107,(499) 180-21-55, detsad1707@mail.ru
 Государственное бюджетное образовательное учреждение города Москвы детский сад компенсирующего вида № 1476, ГБОУ детский сад № 1476,1 476, Дошкольное образовательное учреждение, Детский сад компенсирующего вида, Бюджетное, Центральное окружное управление образования," 119146 г. Москва, 2-я Фрунзенская ул., д.10",55.7234805,37.5815352,(499) 242-25-40, ludmila.ds1476@mail.ru
 Государственное бюджетное образовательное учреждение города Москвы детский сад № 898, ГБОУ детский сад № 898,898, Дошкольное образовательное учреждение, Детский сад, Бюджетное, Южное окружное управление образования," 117587 г.Москва, ул. Кировоградская, д.20,к.4",55.61791539999999,37.6058595,(495) 314-81-49, dou898@sinergi.ru
 Государственное бюджетное образовательное учреждение города Москвы детский сад комбинированного вида № 2085, ГБОУ Детский сад № 2085,2 085, Дошкольное образовательное учреждение, Детский сад комбинированного вида, Бюджетное, Северное окружное управление образования," 125414, г. Москва, ул. Клинская, д. 13",55.8672459,37.4984115,(495) 455-06-87, dskhov2085@soudo.ru
 Государственное бюджетное образовательное учреждение города Москвы детский сад № 2352, ГБОУ детский сад № 2352,2 352, Дошкольное образовательное учреждение, Детский сад, Бюджетное, Центральное окружное управление образования," 119435 Москва, Погодинская ул., дом 20/3, стр. 1",55.72969200000001,37.561608,(499) 246-41-88, dou-2352@mail.ru
 Государственное бюджетное образовательное учреждение города Москвы детский сад комбинированного вида № 1338, ГБОУ детский сад № 1338,1 338, Дошкольное образовательное учреждение, Детский сад комбинированного вида, Бюджетное, Юго-Восточное окружное управление образования," 111674, г. Москва, ул. 1-я Вольская, д. 20, корп. 2",55.6825617,37.9246619,(495) 706-83-33, dou1338@mail.ru
 Государственное бюджетное образовательное учреждение города Москвы детский сад № 415, ГБОУ детский сад № 415,415, Дошкольное образовательное учреждение, Детский сад, Бюджетное, Восточное окружное управление образования," 105264, Москва, ул. 5-я Парковая, д.46 А",55.8003137,37.7892657,(499) 164-48-16, detsad415@yandex.ru
 Государственное бюджетное образовательное учреждение города Москвы центр развития ребенка - детский сад № 2584, ГБОУ ЦРР - детский сад № 2584,2 584, Дошкольное образовательное учреждение, Центр развития ребенка – детский сад, Бюджетное, Юго-Восточное окружное управление образования," 111674, г. Москва, 1-ая Вольская улица, дом 8, корп. 1",55.6820264,37.917038,(495) 706-60-00, crr2584@mail.ru
 Государственное бюджетное образовательное учреждение города Москвы центр развития ребенка - детский сад № 2341, ГБОУ ЦРР - детский сад № 2341,2 341, Дошкольное образовательное учреждение, Центр развития ребенка – детский сад, Бюджетное, Юго-Восточное окружное управление образования," 109156, г. Москва, ул. Генерала Кузнецова, дом 15, корпус 2",55.686108,37.8590609,(495) 705-81-07, ds2341@uvuo.ru
 Государственное бюджетное образовательное учреждение города Москвы детский сад № 2727, ГБОУ детский сад № 2727,2 727, Дошкольное образовательное учреждение, Детский сад, Бюджетное, Восточное окружное управление образования," 107589, г. Москва, ул. Хабаровская, д. 8Б",55.8193421,37.8291574,(495) 469-92-18, detsad2727@yandex.ru
 Государственное бюджетное образовательное учреждение города Москвы детский сад комбинированного вида № 2346, ГБОУ детский сад № 2346,2 346, Дошкольное образовательное учреждение, Детский сад комбинированного вида, Бюджетное, Восточное окружное управление образования," 111672, г. Москва, ул. Новокосинская, д.14 Б",55.73685099999999,37.8602887,(095) 701-23-61, ds2346vou@mail.ru
" Государственное бюджетное образовательное учреждение города Москвы детский сад общеразвивающего вида № 2320 ""Маленькая страна"""," ГБОУ детский сад № 2320 ""Маленькая страна""",2 320, Дошкольное образовательное учреждение, Детский сад общеразвивающего вида с приоритетным осуществлением деятельности по одному из направлений развития детей, Бюджетное, Северо-Западное окружное управление образования," 125368, г. Москва, ул. Дубравная, д. 38, корп. 1",55.8444549,37.3551218,(495) 753-04-00,  dou2320@szouo.ru
 Государственное бюджетное образовательное учреждение города Москвы детский сад комбинированного вида № 891, ГБОУ детский сад № 891,891, Дошкольное образовательное учреждение, Детский сад комбинированного вида, Бюджетное, Северное окружное управление образования," 127486, г. Москва, Дмитровское шоссе, дом 93, к.3",55.8699415,37.5412682,(499) 489-15-65, zaw1934@mail.ru
 Государственное бюджетное образовательное учреждение города Москвы Центр развития ребёнка - детский сад № 2364, ГБОУ ЦРР - детский сад № 2364,2 364, Дошкольное образовательное учреждение, Центр развития ребенка – детский сад, Бюджетное, Центральное окружное управление образования," 123056 г. Москва, ул. Зоологическая, д.26, стр.2",55.7672322,37.5830218,(499) 254-63-81, CDC2364@mail.ru
 Государственное бюджетное образовательное учреждение города Москвы детский сад компенсирующего вида №609, ГБОУ детский сад № 609,609, Дошкольное образовательное учреждение, Детский сад компенсирующего вида, Бюджетное, Восточное окружное управление образования," 105118, г. Москва, улица Бориса Жигуленкова, д. 11",55.77459990000001,37.7327814,(495) 365-46-85, detsad609@mail.ru
 Государственное бюджетное образовательное учреждение города Москвы детский сад № 2529, ГБОУ детский сад № 2529,2 529, Дошкольное образовательное учреждение, Детский сад, Бюджетное, Северное окружное управление образования," 125315, г. Москва, улица Усиевича, дом 29 Б",55.8069595,37.5197076,(499) 747-73-74, 80detskiysad2529@mail.ru
 Государственное бюджетное образовательное учреждение города Москвы детский сад № 1064, ГБОУ детский сад № 1064,1 064, Дошкольное образовательное учреждение, Детский сад, Бюджетное, Юго-Восточное окружное управление образования," 109377, г. Москва, улица Академика Скрябина, дом 1, корп.2",55.7146217,37.7983801,(499) 796-50-21, dc1064@yandex.ru
 Государственное бюджетное образовательное учреждение города Москвы детский сад № 2697, ГБОУ детский сад № 2697,2 697, Дошкольное образовательное учреждение, Детский сад, Бюджетное, Северо-Восточное окружное управление образования," 129348, город Москва, Ярославское шоссе, дом 26 Б, строение 2",55.858021,37.6913993,(499) 188-50-10, dou.2697@yandex.ru
 Государственное бюджетное образовательное учреждение города Москвы детский сад общеразвивающего вида № 567, ГБОУ детский сад № 567,567, Дошкольное образовательное учреждение, Детский сад общеразвивающего вида с приоритетным осуществлением деятельности по одному из направлений развития детей, Бюджетное, Северо-Восточное окружное управление образования," 127322, город Москва, улица Яблочкова, дом 35 В",55.8252819,37.5764332,(495) 610-01-27, goydetskiysad1388@yandex.ru
 Государственное бюджетное образовательное учреждение города Москвы центр развития ребенка-детский сад № 1406, ГБОУ ЦРР-детский сад № 1406,1 406, Дошкольное образовательное учреждение, Центр развития ребенка – детский сад, Бюджетное, Юго-Западное окружное управление образования," 117186, г. Москва, ул. Нагорная, дом 15, корпус 9",55.6777192,37.6103281,127-89-88, dou1406@ou.mosuzedu.ru; ds1406@mosuzedu.ru
 Государственное бюджетное образовательное учреждение города Москвы детский сад № 1031, ГБОУ детский сад № 1031,1 031, Дошкольное образовательное учреждение, Детский сад, Бюджетное, Восточное окружное управление образования," 111141, г. Москва, ул. Перовская, д. 42А",55.74365239999999,37.7798555,(495) 309-36-67, detcad1031@mail.ru
 Государственное бюджетное образовательное учреждение города Москвы детский сад комбинированного вида № 1321, ГБОУ детский сад № 1321,1 321, Дошкольное образовательное учреждение, Детский сад комбинированного вида, Бюджетное, Северо-Восточное окружное управление образования," 127576, город Москва, Новгородская улица, дом 9",55.8953585,37.5779026,(499) 908-49-00, detsad1321@mail.ru
 Государственное бюджетное образовательное учреждение города Москвы детский сад комбинированного вида № 2422, ГБОУ детский сад № 2422,2 422, Дошкольное образовательное учреждение, Детский сад комбинированного вида, Бюджетное, Юго-Западное окружное управление образования," 117042, г.Москва, ул. Адмирала Лазарева, дом 28, корпус 2",55.5472355,37.52978179999999,(495)716-6022, dou2422@mosuzedu.ru
 Государственное бюджетное образовательное учреждение города Москвы детский сад общеразвивающего вида № 2113, ГБОУ детский сад № 2113,2 113, Дошкольное образовательное учреждение, Детский сад общеразвивающего вида с приоритетным осуществлением деятельности по одному из направлений развития детей, Бюджетное, Центральное окружное управление образования," 109004 г.Москва, Николоямский переулок, д.3 а, корпус 3",55.7484062,37.6605511,(495) 911-16-01, detsad2113@gmail.com
 Государственное бюджетное образовательное учреждение города Москвы детский сад № 1898, ГБОУ детский сад № 1898,1 898, Дошкольное образовательное учреждение, Детский сад, Бюджетное, Юго-Восточное окружное управление образования," 109378, Москва, Есенинский бульвар, д.1/26, к.3",55.706477,37.783441,(495) 379-59-18, ds1898@mail.ru
 Государственное бюджетное образовательное учреждение города Москвы детский сад № 818, ГБОУ детский сад № 818,818, Дошкольное образовательное учреждение, Детский сад, Бюджетное, Западное окружное управление образования," 119192,г. Москва, ул. Винницкая, д. 5А",55.69700599999999,37.4940692,(495) 931-42-18, gou818@mail.ru
 Государственное бюджетное образовательное учреждение города Москвы детский сад № 2164, ГБОУ детский сад № 2164,2 164, Дошкольное образовательное учреждение, Детский сад, Бюджетное, Центральное окружное управление образования," 119021 г.Москва, Пуговишников переулок, д.7",55.7321713,37.5863367,(499) 245-21-93, hamovnikids2164@mail.ru; lorina2164@mail.ru
 Государственное бюджетное образовательное учреждение города Москвы детский сад комбинированного вида № 2640, ГБОУ детский сад № 2640,2 640, Дошкольное образовательное учреждение, Детский сад комбинированного вида, Бюджетное, Центральное окружное управление образования," 109544 г.Москва, ул.Рабочая, д.10",55.7441708,37.6822183,(495) 678-64-89, dou2640couo@mail.ru
 Государственное бюджетное образовательное учреждение города Москвы детский сад общеразвивающего вида № 1664, ГБОУ детский сад № 1664,1 664, Дошкольное образовательное учреждение, Детский сад общеразвивающего вида с приоритетным осуществлением деятельности по одному из направлений развития детей, Бюджетное, Северное окружное управление образования," 127644, г. Москва улица Клязьминская, дом 9, корпус 5",55.890497,37.525429,(495) 484-09-74, ds1664@mail.ru
 Государственное бюджетное образовательное учреждение города Москвы детский сад комбинированного вида № 2052, ГБОУ детский сад № 2052,2 052, Дошкольное образовательное учреждение, Детский сад комбинированного вида, Бюджетное, Восточное окружное управление образования," 111673, Москва, ул. Суздальская, д.18А",55.7417557,37.8503492,(495) 702-01-11, delhinenok@rambler.ru; ds.2052@yandex.ru
 Государственное бюджетное образовательное учреждение города Москвы детский сад общеразвивающего вида № 368, ГБОУ детский сад № 368,368, Дошкольное образовательное учреждение, Детский сад общеразвивающего вида с приоритетным осуществлением деятельности по одному из направлений развития детей, Бюджетное, Юго-Западное окружное управление образования," 117292, г. Москва, ул. Ивана Бабушкина, д.13, корп. 2",55.6850083,37.5623049,(499) 125-01-59, Ivanova1041@yandex.ru
 Государственное бюджетное образовательное учреждение города Москвы детский сад № 1556, ГБОУ детский сад № 1556,1 556, Дошкольное образовательное учреждение, Детский сад, Бюджетное, Северное окружное управление образования," 125565, г. Москва, Конаковский проезд, 12 ""А""",55.8487966,37.4827618,(495) 452-16-24, detskiysad1556@rambler.ru
 Государственное бюджетное образовательное учреждение города Москвы Детский сад № 1649, ГБОУ детский сад № 1649,1 649, Дошкольное образовательное учреждение, Детский сад, Бюджетное, Юго-Восточное окружное управление образования," 109428, г.Москва, 2-й Пятигорский проезд, дом 5, корпус 1",55.724964,37.769763,(499) 171-29-83, goudetsad1609@mail.ru goy1649@yandex.ru
 Государственное бюджетное образовательное учреждение города Москвы детский сад № 351, ГБОУ детский сад № 351,351, Дошкольное образовательное учреждение, Детский сад, Бюджетное, Северное окружное управление образования," ""125413, г. Москва, улица Флотская, д. 27 ""А""",55.8624816,37.5156615,(495) 453-01-92, gou-ds-351@mail.ru
 Государственное бюджетное образовательное учреждение города Москвы центр развития ребенка - детский сад № 2347, ГБОУ ЦРР - детский сад № 2347,2 347, Дошкольное образовательное учреждение, Центр развития ребенка – детский сад, Бюджетное, Юго-Восточное окружное управление образования," 109431, г. Москва, ул. Генерала Кузнецова, д. 28, к. 2",55.68329120000001,37.8503063,(495) 704-59-79, 7045979@sad-2347.ru
" Государственное бюджетное образовательное учреждение города Москвы детский сад комбинированного вида № 1117 ""Белочка""", ГБОУ детский сад № 1117 «Белочка»,1 117, Дошкольное образовательное учреждение, Детский сад комбинированного вида, Бюджетное, Троицкое и новомосковское окружное управление образования," 142793, Москва Город, поселение Десёновское; поселок Ватутинки-1 Населенный пункт, 22",55.4889088,37.37939590000001,#Н/Д, bel1117@mail.ru
 Государственное бюджетное образовательное учреждение города Москвы детский сад компенсирующего вида № 181, ГБОУ детский сад № 181,181, Дошкольное образовательное учреждение, Детский сад компенсирующего вида, Бюджетное, Северо-Восточное окружное управление образования," 127322, г.Москва, ул.Милашенкова, д.5-А",55.8230522,37.586449,(495) 610-05-88, dousv-181@mail.ru; dou181@yandex.ru; dou.181@yandex.ru
 Государственное бюджетное образовательное учреждение города Москвы детский сад № 2509, ГБОУ детский сад № 2509,2 509, Дошкольное образовательное учреждение, Детский сад, Бюджетное, Юго-Западное окружное управление образования," 119421, г. Москва, ул. Обручева, дом 15, корпус 2, строение 1",55.65959300000001,37.517932,(499) 739-84-89, pavlova-1972@mail.ru
 Государственное бюджетное образовательное учреждение города Москвы детский сад комбинированного вида № 931, ГБОУ детский сад № 931,931, Дошкольное образовательное учреждение, Детский сад комбинированного вида, Бюджетное, Юго-Восточное окружное управление образования," 109444, г. Москва, ул. Сормовская, д. 5",55.7098601,37.8128986,(495) 377-33-76, ds931@mail.ru
 Муниципальное бюджетное дошкольное образовательное учреждение городского округа Щербинка в городе Москве детский сад № 7 «Золотая рыбка», МБДОУ детский сад № 7 «Золотая рыбка», 7, Дошкольное образовательное учреждение, Детский сад, Бюджетное, Троицкое и новомосковское окружное управление образования," 142171, Москва Город, Щербинка Город, Чапаева Улица, 3",55.51278749999999,37.5703291,#Н/Д, z-rybka64@mail.ru
 Государственное бюджетное образовательное учреждение города Москвы детский сад компенсирующего вида № 92, ГБОУ детский сад № 92, 92, Дошкольное образовательное учреждение, Детский сад компенсирующего вида, Бюджетное, Северо-Восточное окружное управление образования," 129327, город Москва, улица Ленская, дом 5",55.864736,37.6713104,(495) 471-37-16, dou92@yandex.ru; goy_92@bk.ru
 Государственное бюджетное образовательное учреждение города Москвы детский сад № 2479, ГБОУ детский сад № 2479,2 479, Дошкольное образовательное учреждение, Детский сад, Бюджетное, Восточное окружное управление образования," 111675, город Москва, улица Медведева, дом 2, дом 4",55.71686829999999,37.8797129,(499) 721-48-40, detsad2479@yandex.ru
 Государственное бюджетное образовательное учреждение города Москвы детский сад комбинированного вида № 2502, ГБОУ детский сад № 2502,2 502, Дошкольное образовательное учреждение, Детский сад комбинированного вида, Бюджетное, Южное окружное управление образования," 115211 г. Москва, Борисовские пруды ул. д. 11,к.2",55.6371933,37.7174256,(495) 340-35-49, dou2502@sinergi.ru; dou2502@rambler.ru
 Государственное бюджетное образовательное учреждение города Москвы Центр развития ребенка - детский сад № 1786, ГБОУ ЦРР - детский сад № 1786,1 786, Дошкольное образовательное учреждение, Центр развития ребенка – детский сад, Бюджетное, Центральное окружное управление образования," 123022 г. Москва, Б. Трехгорный пер., д.8",55.7610514,37.56526849999999,(499) 256-29-39, 1786ds@mail.ru
 Государственное бюджетное образовательное учреждение города Москвы детский сад общеразвивающего вида № 515, ГБОУ детский сад № 515,515, Дошкольное образовательное учреждение, Детский сад общеразвивающего вида с приоритетным осуществлением деятельности по одному из направлений развития детей, Бюджетное, Юго-Западное окружное управление образования," 117393, г.Москва, улица Гарибальди, дом 10А",55.6726861,37.5372932,132-20-22, gou515@mosuzedu.ru
 Государственное бюджетное образовательное учреждение города Москвы детский сад общеразвивающего вида № 835, ГБОУ детский сад № 835,835, Дошкольное образовательное учреждение, Детский сад общеразвивающего вида с приоритетным осуществлением деятельности по одному из направлений развития детей, Бюджетное, Южное окружное управление образования," 117535 г. Москва, ул. Дорожная,д.7,корп.4",55.6016124,37.6236861,(495) 382-81-94, dou835@sinergi.ru
 Государственное бюджетное образовательное учреждение города Москвы детский сад № 1873, ГБОУ детский сад № 1873,1 873, Дошкольное образовательное учреждение, Детский сад, Бюджетное, Южное окружное управление образования," 115533 г.Москва, ул.Нагатинская, д.13, к.3",55.68079239999999,37.6413151,(499) 611-04-28, dou1873@sinergi.ru; detsad1873.narod2.ru
 Государственное бюджетное образовательное учреждение города Москвы детский сад комбинированного вида № 2104, ГБОУ детский сад № 2104,2 104, Дошкольное образовательное учреждение, Детский сад комбинированного вида, Бюджетное, Северное окружное управление образования," 127591, г. Москва, ул. 800-летия Москвы, дом 28, корп. 2",55.878573,37.562486,(499) 900-02-09, detsad2104@mail.ru
 Государственное бюджетное образовательное учреждение города Москвы детский сад общеразвивающего вида № 925, ГБОУ детский сад № 925,925, Дошкольное образовательное учреждение, Детский сад общеразвивающего вида с приоритетным осуществлением деятельности по одному из направлений развития детей, Бюджетное, Северо-Восточное окружное управление образования," 129336, город Москва, улица Стартовая, дом 29",55.8850992,37.6908488,(495) 475-33-97, Sadik925@mail.ru
 Государственное бюджетное образовательное учреждение города Москвы детский сад компенсирующего вида № 2309, ГБОУ детский сад № 2309,2 309, Дошкольное образовательное учреждение, Детский сад компенсирующего вида, Бюджетное, Юго-Западное окружное управление образования," 117624, город Москва, улица Веневская, дом 13",55.54494039999999,37.549928,716-19-63, dou2309@ou.mosuzedu.ru
 Государственное бюджетное образовательное учреждение города Москвы детский сад комбинированного вида № 9, ГБОУ детский сад № 9, 9, Дошкольное образовательное учреждение, Детский сад комбинированного вида, Бюджетное, Северо-Западное окружное управление образования," 123423 г. Москва, Карамышевская набережная, д. 26, корп. 2",55.770463,37.477476,(499) 728-31-97,  dou9@szouo.ru
 Государственное бюджетное образовательное учреждение города Москвы детский сад комбинированного вида № 2201, ГБОУ детский сад № 2201,2 201, Дошкольное образовательное учреждение, Детский сад комбинированного вида, Бюджетное, Северное окружное управление образования," 127591, г. Москва, ул. 800- летия Москвы, дом 28, корп.3",55.8787536,37.5612393,(499) 900-08-72, www.detsad2201@yandex.ru
 Государственное бюджетное образовательное учреждение города Москвы детский сад комбинированного вида № 1986, ГБОУ детский сад №1986,1 986, Дошкольное образовательное учреждение, Детский сад комбинированного вида, Бюджетное, Юго-Западное окружное управление образования," 117593, г. Москва, ул. Рокотова, дом 8, корпус 3",55.61197499999999,37.547821,8 (495) 426-77-33, d.s.1986@mail.ru; detsad1986@mail.ru
 Государственное бюджетное образовательное учреждение города Москвы детский сад №1690, ГБОУ детский сад № 1690,1 690, Дошкольное образовательное учреждение, Детский сад комбинированного вида, Бюджетное, Восточное окружное управление образования," 111672,г.Москва,ул. Городецкая д.10А",55.73862829999999,37.8652522,(495) 701-24-70, ds_1690@list.ru
 Государственное бюджетное образовательное учреждение города Москвы детский сад № 2686, ГБОУ детский сад № 2686,2 686, Дошкольное образовательное учреждение, Детский сад, Бюджетное, Юго-Западное окружное управление образования," 117148, г.Москва, ул.Маршала Савицкого, д.14",55.503441,37.5848412,(499) 232-04-18, dou2686@ou.mosuzedu.ru
 Государственное бюджетное образовательное учреждение города Москвы детский сад комбинированного вида № 644, ГБОУ детский сад № 644,644, Дошкольное образовательное учреждение, Детский сад комбинированного вида, Бюджетное, Центральное окружное управление образования," 109147 г.Москва, Тихий тупик, д. 2",55.7380497,37.6654607,(495) 912-25-59, gouds644@yandex.ru
 Государственное бюджетное образовательное учреждение города Москвы центр развития ребенка - детский сад № 837, ГБОУ ЦРР - детский сад № 837,837, Дошкольное образовательное учреждение, Центр развития ребенка – детский сад, Бюджетное, Восточное окружное управление образования," 105264, г. Москва, ул. Верхняя Первомайская, д. 23",55.79993899999999,37.785115,(499) 164-67-03, crr837@mail.ru
 Государственное бюджетное образовательное учреждение города Москвы детский сад комбинированного вида № 623, ГБОУ детский сад № 623,623, Дошкольное образовательное учреждение, Детский сад комбинированного вида, Бюджетное, Южное окружное управление образования," 115470 г. Москва, ул. Новинки, д.15,к.2",55.678126,37.672488,(499) 615-64-08, dou623@sinergi.ru
 Государственное бюджетное образовательное учреждение города Москвы детский сад № 411, ГБОУ детский сад № 411,411, Дошкольное образовательное учреждение, Детский сад, Бюджетное, Западное окружное управление образования," 121248 г.Москва, Кутузовский проспект, д. 7/4 корпус 1",55.74896159999999,37.5633825,(499) 243-10-70, sad1128@mail.ru
 Государственное бюджетное образовательное учреждение города Москвы детский сад № 2055, ГБОУ детский сад № 2055,2 055, Дошкольное образовательное учреждение, Детский сад, Бюджетное, Юго-Западное окружное управление образования," 117628, г.Москва, улица Ратная, дом 7А",55.576336,37.5761719,84957111672, telegina.09@mail.ru; ztamara2055@yandex.ru
 Государственное бюджетное образовательное учреждение города Москвы детский сад компенсирующего вида № 2308, ГБОУ детский сад № 2308,2 308, Дошкольное образовательное учреждение, Детский сад компенсирующего вида, Бюджетное, Юго-Западное окружное управление образования," 117624, город Москва, улица Веневская, дом 11",55.545466,37.549862,716-19-90, dou2308@mosuzedu.ru
 Государственное бюджетное образовательное учреждение города Москвы детский сад № 1477, ГБОУ детский сад № 1477,1 477, Дошкольное образовательное учреждение, Детский сад, Бюджетное, Северо-Восточное окружное управление образования," 129075, город Москва, 2-ая Новоостанкинская, д. 14А",55.81652829999999,37.6280676,(495) 602-49-28, dou-1477@yandex.ru
 Государственное бюджетное образовательное учреждение города Москвы детский сад № 328, ГБОУ детский сад № 328,328, Дошкольное образовательное учреждение, Детский сад, Бюджетное, Северное окружное управление образования," 125183, г. Москва, улица Большая Академическая, дом № 63 а",55.841134,37.546534,(499) 154-74-81, detsad328-k@mail.ru
 Государственное бюджетное образовательное учреждение города Москвы детский сад компенсирующего вида № 2230, ГБОУ детский сад № 2230,2 230, Дошкольное образовательное учреждение, Детский сад компенсирующего вида, Бюджетное, Северное окружное управление образования," 125475, г. Москва, улица Зеленоградская, дом 37 А",55.8767797,37.4872693,(495) 455-94-41, ds2230@list.ru; http://dskvp2230.mskobr.ru/
 Государственное бюджетное образовательное учреждение города Москвы детский сад компенсирующего вида № 861, ГБОУ детский сад № 861,861, Дошкольное образовательное учреждение, Детский сад компенсирующего вида, Бюджетное, Восточное окружное управление образования," 140130, Московская обл.Раменский район, пос. Кратово, ул. Старомосковская, д.12",55.6055976,38.1369119,#Н/Д, 861ds@mail.ru
 Государственное бюджетное образовательное учреждение города Москвы детский сад № 395, ГБОУ детский сад № 395,395, Дошкольное образовательное учреждение, Детский сад, Бюджетное, Юго-Восточное окружное управление образования," 109202, город Москва, улица Басовская, дом 3",55.7390246,37.7381476,(499) 673-39-35, detskijsad.395@yandex.ru
 Государственное бюджетное образовательное учреждение города Москвы детский сад комбинированного вида № 610, ГБОУ детский сад № 610,610, Дошкольное образовательное учреждение, Детский сад комбинированного вида, Бюджетное, Северо-Восточное окружное управление образования," 127204, город Москва, улица 3-я Северная линия, дом 15",55.9406577,37.5539105,(499) 767-86-44, gou610@yandex.ru
 Государственное бюджетное образовательное учреждение города Москвы детский сад № 1501, ГБОУ детский сад № 1501,1 501, Дошкольное образовательное учреждение, Детский сад общеразвивающего вида с приоритетным осуществлением деятельности по одному из направлений развития детей, Бюджетное, Северное окружное управление образования," 127422, г. Москва, улица Костякова д.8",55.8129189,37.5722053,(499) 976-40-69, luba591@rambler.ru
 Государственное бюджетное образовательное учреждение города Москвы детский сад компенсирующего вида № 1472, ГБОУ детский сад № 1472,1 472, Дошкольное образовательное учреждение, Детский сад компенсирующего вида, Бюджетное, Центральное окружное управление образования," 119146 г. Москва, ул. 1-я Фрунзенская. д.6 А",55.7281021,37.5873319,(499) 766-41-53, de1472@mail.ru
" Государственное бюджетное образовательное учреждение города Москвы детский сад комбинированного вида № 1088 ""Жар-птица""", ГБОУ детский сад № 1088 «Жар-птица»,1 088, Дошкольное образовательное учреждение, Детский сад комбинированного вида, Бюджетное, Троицкое и новомосковское окружное управление образования," 105318, Москва Город, Семеновская Площадь, 4",55.7813321,37.7210321,#Н/Д, firebird-22@mail.ru
 Государственное бюджетное образовательное учреждение города Москвы детский сад № 1089, ГБОУ детский сад № 1089,1 089, Дошкольное образовательное учреждение, Детский сад, Бюджетное, Центральное окружное управление образования," 119435 г. Москва, ул. Б. Пироговская, д. 53/55",55.7273601,37.561282,(499) 246-78-44, detskis1089@yandex.ru
 Государственное бюджетное образовательное учреждение города Москвы детский сад комбинированного вида № 919, ГБОУ детский сад № 919,919, Дошкольное образовательное учреждение, Детский сад комбинированного вида, Бюджетное, Южное окружное управление образования," 115583 г.Москва, ул.Елецкая, д.21",55.60577,37.7355019,(495) 398-50-39, dou919@sinergi.ru
 Государственное бюджетное образовательное учреждение города Москвы детский сад комбинированного вида № 1038, ГБОУ детский сад № 1038,1 038, Дошкольное образовательное учреждение, Детский сад комбинированного вида, Бюджетное, Восточное окружное управление образования," 111531, г. Москва, ш. Энтузиастов, д.94 б",55.77082679999999,37.8259815,(095) 300-24-40, sad1038@mail.ru
 Государственное бюджетное образовательное учреждение города Москвы детский сад комбинированного вида № 525, ГБОУ детский сад № 525,525, Дошкольное образовательное учреждение, Детский сад комбинированного вида, Бюджетное, Северное окружное управление образования," 127083, г. Москва, Мирской переулок, дом 9",55.7965695,37.5648545,(495) 612-71-91, 525ds@mail.ru
 Государственное бюджетное образовательное учреждение города Москвы детский сад компенсирующего вида № 2168, ГБОУ детский сад № 2168,2 168, Дошкольное образовательное учреждение, Детский сад компенсирующего вида, Бюджетное, Юго-Западное окружное управление образования," 117593, город Москва, Новоясеневский проспект, дом 21, корпус 2",55.6040602,37.55175699999999,4251908, Gou2168@mosuzedu.ru
 Государственное бюджетное образовательное учреждение города Москвы детский сад комбинированного вида № 669, ГБОУ детский сад № 669,669, Дошкольное образовательное учреждение, Детский сад комбинированного вида, Бюджетное, Центральное окружное управление образования," 119121 г.Москва, 7-ой Ростовский пер.,д.16",55.741437,37.5748588,(499) 248-17-75, zinaidagluxix2009@rambler.ru
 Государственное бюджетное образовательное учреждение города Москвы детский сад комбинированного вида № 585, ГБОУ детский сад № 585,585, Дошкольное образовательное учреждение, Детский сад, Бюджетное, Центральное окружное управление образования," 123022, г. Москва, ул. 1905 года, д. 4, стр. 1",55.7652745,37.561468,(499) 253-35-41, 585ds@mail.ru
 Государственное бюджетное образовательное учреждение города Москвы детский сад комбинированного вида № 2712, ГБОУ детский сад № 2712,2 712, Дошкольное образовательное учреждение, Детский сад комбинированного вида, Бюджетное, Юго-Восточное окружное управление образования," 111674, Москва, 2-я Вольская улица, дом 4",55.6854182,37.918734,(499) 211-20-07, detsad2712@gmail.com
 Государственное бюджетное образовательное учреждение города Москвы детский сад комбинированного вида № 1944, ГБОУ детский сад № 1944,1 944, Дошкольное образовательное учреждение, Детский сад комбинированного вида, Бюджетное, Юго-Западное окружное управление образования," 119331, г. Москва, ул. Марии Ульяновой, дом 25Б",55.6815627,37.5202444,+7 (499) 138-5979, gou1944@mosuzedu.ru
 Государственное бюджетное образовательное учреждение города Москвы детский сад № 1550, ГБОУ детский сад № 1550,1 550, Дошкольное образовательное учреждение, Детский сад, Бюджетное, Юго-Восточное окружное управление образования," 109548, г. Москва, ул. Полбина, дом 28",55.6859275,37.7285025,(495) 354-66-61, ds1550@list.ru
 Государственное бюджетное образовательное учреждение города Москвы детский сад комбинированного вида № 1882, ГБОУ детский сад № 1882,1 882, Дошкольное образовательное учреждение, Детский сад комбинированного вида, Бюджетное, Северное окружное управление образования," 125502, г. Москва, улица Петрозаводская, д. 7А",55.86438339999999,37.4965529,(495) 455-42-24, dou1882@rambler.ru
 Государственное бюджетное образовательное учреждение города Москвы детский сад № 2653, ГБОУ детский сад № 2653,2 653, Дошкольное образовательное учреждение, Детский сад, Бюджетное, Западное окружное управление образования," 119634, г. Москва, ул. Лукинская, д. 14, корп. 2",55.6473996,37.3396812,(499) 739-09-26, dou2652@mail.ru
 Государственное бюджетное образовательное учреждение города Москвы детский сад № 1799, ГБОУ детский сад № 1799,1 799, Дошкольное образовательное учреждение, Детский сад, Бюджетное, Юго-Восточное окружное управление образования," 109144, г. Москва, ул.Батайский проезд д. 39",55.6444197,37.7330779,(499) 356-73-92, ds1799@yandex.ru
 Государственное бюджетное образовательное учреждение города Москвы детский сад комбинированного вида № 1680, ГБОУ детский сад № 1680,1 680, Дошкольное образовательное учреждение, Детский сад комбинированного вида, Бюджетное, Южное окружное управление образования," 115597 г. Москва, Гурьевский пр-д, д.21, к.2",55.6079727,37.750695,(495) 397-90-64, dou1680@sinergi.ru
 Государственное бюджетное образовательное учреждение города Москвы центр развития ребенка - детский сад № 1647, ГБОУ ЦРР - детский сад № 1647,1 647, Дошкольное образовательное учреждение, Центр развития ребенка – детский сад, Бюджетное, Юго-Западное окружное управление образования," 117647, г.Москва, ул. Академика Капицы, дом 10",55.6301249,37.52277369999999,420-37-11, dou1647@ou.mosuzedu.ru
 Государственное бюджетное образовательное учреждение города Москвы детский сад компенсирующего вида № 425, ГБОУ детский сад № 425,425, Дошкольное образовательное учреждение, Детский сад компенсирующего вида, Бюджетное, Северо-Восточное окружное управление образования," 127254 г. Москва, улица Гончарова, д. 13-А",55.8154354,37.5864316,(495) 618-15-49, AYAKS425@yandex.ru; dou.425@yandex.ru
 Государственное бюджетное образовательное учреждение города Москвы центр развития ребенка - детский сад № 703, ГБОУ ЦРР - детский сад № 703,703, Дошкольное образовательное учреждение, Центр развития ребенка – детский сад, Бюджетное, Северное окружное управление образования," 127411, г. Москва, улица Софьи Ковалевской, д. 6 А",55.8818377,37.5348425,(495) 484-90-74, sad703@ya.ru
 Государственное бюджетное образовательное учреждение города Москвы детский сад комбинированного вида № 2248, ГБОУ детский сад № 2248,2 248, Дошкольное образовательное учреждение, Детский сад комбинированного вида, Бюджетное, Южное окружное управление образования," 115407 г. Москва, Затонная ул. д.7,к.2",55.68054230000001,37.6862982,(499) 616-52-66, dou2248@sinergi.ru
 Государственное бюджетное образовательное учреждение города Москвы детский сад компенсирующего вида № 1889, ГБОУ детский сад № 1889,1 889, Дошкольное образовательное учреждение, Детский сад компенсирующего вида, Бюджетное, Северо-Западное окружное управление образования," 123154, г. Москва, бульвар Генерала Карбышева, д. 24, корп. 2",55.7823237,37.47467839999999,(499) 197-57-11,  dou1889@szouo.ru
 Государственное бюджетное образовательное учреждение города Москвы детский сад № 1130, ГБОУ детский сад № 1130,1 130, Дошкольное образовательное учреждение, Детский сад, Бюджетное, Юго-Восточное окружное управление образования," 109429, г. Москва, Капотня, 4 квартал, дом 5",55.6342356,37.7943972,(495) 355-74-74, GOU-1130@yandex.ru.
 Государственное бюджетное образовательное учреждение города Москвы детский сад № 2464, ГБОУ детский сад № 2464,2 464, Дошкольное образовательное учреждение, Детский сад, Бюджетное, Юго-Западное окружное управление образования," 117198, город Москва, ул. Саморы Машела, дом 6, корпус 1",55.6467885,37.4973351,735-11-00, ds2464@mosuzedu.ru
 Государственное бюджетное образовательное учреждение города Москвы детский сад № 401, ГБОУ детский сад № 401,401, Дошкольное образовательное учреждение, Детский сад, Бюджетное, Юго-Западное окружное управление образования," 119296, г.Москва, Ломоносовский проспект, дом 14",55.6898694,37.5410406,8-495-930-23-82, dou1123@mosuzedu.ru
 Государственное бюджетное образовательное учреждение города Москвы детский сад общеразвивающего вида № 748, ГБОУ детский сад № 748,748, Дошкольное образовательное учреждение, Детский сад общеразвивающего вида с приоритетным осуществлением деятельности по одному из направлений развития детей, Бюджетное, Южное окружное управление образования," 117535 г. Москва, 3-й Дорожный проездд, 6Б",55.60049840000001,37.6129539,(495) 382-88-68, dou748@sinergi.ru
" Государственное бюджетное образовательное учреждение города Москвы детский сад № 2713 ""Винни-Пух"""," ГБОУ детский сад № 2713 ""Винни-Пух""",2 713, Дошкольное образовательное учреждение, Детский сад, Бюджетное, Северо-Западное окружное управление образования," 123298, г. Москва, Тепличный переулок, д. 5, к.1",55.79030179999999,37.4948399,(499) 728-01-30,  dou2713@szouo.ru
 Государственное бюджетное образовательное учреждение города Москвы центр развития ребенка - детский сад № 1780, ГБОУ ЦРР - детский сад № 1780,1 780, Дошкольное образовательное учреждение, Центр развития ребенка – детский сад, Бюджетное, Южное окружное управление образования," 117639 г. Москва, Балаклавский пр-т, 3-б",55.6392067,37.6126145,(495) 310-37-27, dou1780@sinergi.ru
 Государственное бюджетное образовательное учреждение города Москвы детский сад № 1394, ГБОУ детский сад № 1394,1 394, Дошкольное образовательное учреждение, Детский сад, Бюджетное, Западное окружное управление образования," 121108, г.Москва, ул.Кастанаевская, д. 64",55.7323652,37.4581404,(499) 144-46-68, dou1394@inbox.ru
" Государственное бюджетное образовательное учреждение города Москвы детский сад № 586 ""Обыкновенное чудо"""," ГБОУ детский сад № 586 ""Обыкновенное чудо""",586, Дошкольное образовательное учреждение, Детский сад, Бюджетное, Северо-Западное окружное управление образования," 123585, г. Москва, ул. Генерала Глаголева, д. 28, к.2",55.787675,37.4682419,(495) 947-06-80, dou586@szouo.ru
 Государственное бюджетное образовательное учреждение города Москвы детский сад общеразвивающего вида № 1119, ГБОУ детский сад № 1119,1 119, Дошкольное образовательное учреждение, Детский сад общеразвивающего вида с приоритетным осуществлением деятельности по одному из направлений развития детей, Бюджетное, Троицкое и новомосковское окружное управление образования," 105318, Москва Город, Семеновская Площадь, 4",55.7813321,37.7210321,#Н/Д, detskijsad1119@yandex.ru
 Государственное бюджетное образовательное учреждение города Москвы детский сад № 2539, ГБОУ детский сад № 2539,2 539, Дошкольное образовательное учреждение, Детский сад, Бюджетное, Восточное окружное управление образования," 107564,г.Москва, 3-я Богатырская ул., д.5",55.817837,37.6950843,(499) 748-35-02, DS2539@yandex.ru
 Государственное бюджетное образовательное учреждение города Москвы детский сад № 333, ГБОУ детский сад № 333,333, Дошкольное образовательное учреждение, Детский сад, Бюджетное, Западное окружное управление образования," 119590, г.Москва, ул. Довженко, д. 8",55.72138349999999,37.5124051,(499) 147-91-03, dou333@bk.ru
 Государственное бюджетное образовательное учреждение города Москвы детский сад общеразвивающего вида № 2209, ГБОУ детский сад № 2209,2 209, Дошкольное образовательное учреждение, Детский сад общеразвивающего вида с приоритетным осуществлением деятельности по одному из направлений развития детей, Бюджетное, Юго-Восточное окружное управление образования," 109369, г. Москва, ул. Люблинская, д.114",55.6492252,37.7397483,(495) 349-12-61, detsad2209@mail.ru
 Государственное бюджетное образовательное учреждение города Москвы детский сад общеразвивающего вида № 1257, ГБОУ детский сад № 1257,1 257, Дошкольное образовательное учреждение, Детский сад общеразвивающего вида с приоритетным осуществлением деятельности по одному из направлений развития детей, Бюджетное, Центральное окружное управление образования," 123022 Москва, Звенигородское шоссе, д.3А, стр.1",55.7635592,37.5565437,(499) 253-12-45, 1257ds@mail.ru
 Государственное бюджетное образовательное учреждение города Москвы детский сад № 1374, ГБОУ детский сад № 1374,1 374, Дошкольное образовательное учреждение, Детский сад, Бюджетное, Центральное окружное управление образования," 105094 г. Москва, Гольяновская улица дом 1А",55.77741,37.705926,(495) 360-16-68, detsad1374@yandex.ru
" Государственное бюджетное образовательное учреждение города Москвы центр развития ребенка - детский сад № 1203 ""Росинка""", ГБОУ ЦРР – детский сад № 1203 «Росинка»,1 203, Дошкольное образовательное учреждение, Центр развития ребенка – детский сад, Бюджетное, Троицкое и новомосковское окружное управление образования," 105318, Москва Город, Семеновская Площадь, 4",55.7813321,37.7210321,#Н/Д, detsad27rosinka@nextmail.ru
 Государственное бюджетное образовательное учреждение города Москвы детский сад № 2619, ГБОУ детский сад № 2619,2 619, Дошкольное образовательное учреждение, Детский сад, Бюджетное, Центральное окружное управление образования," 119121 г.Москва, Ружейный пер., д.3",55.7430795,37.5822065,(916) 122-45-80, dou2619@mail.ru
 Государственное бюджетное образовательное учреждение города Москвы детский сад комбинированного вида № 1761, ГБОУ детский сад № 1761,1 761, Дошкольное образовательное учреждение, Детский сад комбинированного вида, Бюджетное, Восточное окружное управление образования," 111531, г. Москва, шоссе Энтузиастов, д. 96 Б, стр. 1",55.7713694,37.8295744,(495) 307-40-88, detsad1761@mail.ru
 Государственное бюджетное образовательное учреждение города Москвы детский сад № 771, ГБОУ детский сад № 771,771, Дошкольное образовательное учреждение, Детский сад, Бюджетное, Северное окружное управление образования," ""123308, г. Москва, Хорошевское шоссе, дом 43 ""Б""",55.7768771,37.5096912,(499) 195-10-83, dss771@yandex.ru и detsad1779@yandex.ru
 Государственное бюджетное образовательное учреждение города Москвы детский сад комбинированного вида № 1806, ГБОУ детский сад № 1806,1 806, Дошкольное образовательное учреждение, Детский сад комбинированного вида, Бюджетное, Северное окружное управление образования," 125499, г. Москва, Кронштадтский бульвар, дом 43б",55.85197489999999,37.5069803,(495) 454-24-11, d-s1806@yandex.ru
 Государственное бюджетное образовательное учреждение города Москвы детский сад № 249, ГБОУ детский сад № 249,249, Дошкольное образовательное учреждение, Детский сад общеразвивающего вида с приоритетным осуществлением деятельности по одному из направлений развития детей, Бюджетное, Северное окружное управление образования," 123308, г. Москва, улица Зорге, дом 8",55.7811382,37.5127202,(499) 943-11-21, detskiysad249@rambler.ru
 Государственное бюджетное образовательное учреждение города Москвы детский сад компенсирующего вида № 1592, ГБОУ детский сад № 1592,1 592, Дошкольное образовательное учреждение, Детский сад компенсирующего вида, Бюджетное, Северо-Восточное окружное управление образования," 127572, г.Москва, ул. Угличская, дом 14",55.901965,37.568955,(499) 908-89-55, detsad1592@post.ru; detsad1592svao@yandex.ru
 Государственное бюджетное образовательное учреждение города Москвы детский сад комбинированного вида № 1602, ГБОУ детский сад № 1602,1 602, Дошкольное образовательное учреждение, Детский сад комбинированного вида, Бюджетное, Восточное окружное управление образования," 111555, Москва, улица Молостовых, д.9 Б",55.75843570000001,37.835695,(495) 307-61-38, detsad1602@yandex.ru
 Государственное бюджетное образовательное учреждение города Москвы детский сад компенсирующего вида № 724, ГБОУ детский сад № 724,724, Дошкольное образовательное учреждение, Детский сад компенсирующего вида, Бюджетное, Восточное окружное управление образования," 111401, г. Москва, ул. Металлургов, д. 16",55.7567935,37.7858162,(495) 304-03-00, gou724@newmail.ru
 Государственное бюджетное образовательное учреждение города Москвы детский сад компенсирующего вида № 1298, ГБОУ детский сад № 1298,1 298, Дошкольное образовательное учреждение, Детский сад компенсирующего вида, Бюджетное, Западное окружное управление образования," 121552 г.Москва, ул. Рублевское шоссе, д. 115",55.74665479999999,37.4141206,(499) 140-35-73, gou1298@mail.ru
 Государственное бюджетное образовательное учреждение города Москвы детский сад № 2210, ГБОУ детский сад № 2210,2 210, Дошкольное образовательное учреждение, Детский сад, Бюджетное, Юго-Восточное окружное управление образования," 109044, Москва, Сосинская ул., д.4",55.7301049,37.6714118,(495) 676-03-34, detsad2210@mail.ru
 Государственное бюджетное образовательное учреждение города Москвы детский сад с этнокультурным (русским) компонентом образования № 633, ГБОУ детский сад № 633,633, Дошкольное образовательное учреждение, Детский сад с этнокультурным (национальным) компонентом образования, Бюджетное, Северное окружное управление образования," 127486, г. Москва, улица Ивана Сусанина, дом 4А",55.8663458,37.5294433,(499) 488-34-92, dou633@mail.ru
 Государственное бюджетное образовательное учреждение города Москвы детский сад компенсирующего вида № 763, ГБОУ детский сад № 763,763, Дошкольное образовательное учреждение, Детский сад компенсирующего вида, Бюджетное, Юго-Восточное окружное управление образования," 111024, Москва, улица Авиамоторная, д.45",55.7507512,37.7188649,(495) 362-23-17, ds763@mail.ru
 Государственное бюджетное образовательное учреждение города Москвы детский сад комбинированного вида № 531, ГБОУ детский сад № 531,531, Дошкольное образовательное учреждение, Детский сад комбинированного вида, Бюджетное, Западное окружное управление образования," 119297 г.Москва, ул. Родниковая, д. 10, корп. 1",55.6375053,37.3787431,(495) 435-08-80, GOU531@yandex.ru
 Государственное бюджетное образовательное учреждение города Москвы детский сад комбинированного вида № 1697, ГБОУ детский сад № 1697,1 697, Дошкольное образовательное учреждение, Детский сад комбинированного вида, Бюджетное, Восточное окружное управление образования," 111672, г. Москва, ул. Салтыковская, д. 21 А",55.7395805,37.86989519999999,(495) 702-03-87, detsad1697@rambler.ru
 Государственное бюджетное образовательное учреждение города Москвы детский сад № 2079, ГБОУ детский сад № 2079,2 079, Дошкольное образовательное учреждение, Детский сад, Бюджетное, Северное окружное управление образования," 125130, г. Москва, ул. Нарвская, д. 8",55.834979,37.5066269,(495) 450-45-33, detsad2079@yandex.ru
 Государственное бюджетное образовательное учреждение города Москвы детский сад № 2615, ГБОУ детский сад № 2615,2 615, Дошкольное образовательное учреждение, Детский сад, Бюджетное, Восточное окружное управление образования," 111674, Москва, ул. Лухмановская, д.18А",55.72012609999999,37.9049355,(499) 797-47-40, eduska@mail.ru
 Государственное бюджетное образовательное учреждение города Москвы детский сад № 550, ГБОУ детский сад № 550,550, Дошкольное образовательное учреждение, Детский сад, Бюджетное, Юго-Восточное окружное управление образования," 109391, г. Москва, Орехово-Зуевский проезд, дом 24",55.7319842,37.7584882,(499) 784-43-40, ds550@mail.ru
 Государственное бюджетное образовательное учреждение города Москвы детский сад комбинированного вида № 428, ГБОУ детский сад № 428,428, Дошкольное образовательное учреждение, Детский сад комбинированного вида, Бюджетное, Южное окружное управление образования," 115580 г. Москва ул. Шипиловская,58,к.2",55.6212296,37.7454819,(495) 396-83-65, dou1174@sinergi.ru
 Государственное бюджетное образовательное учреждение города Москвы детский сад № 1796, ГБОУ детский сад № 1796,1 796, Дошкольное образовательное учреждение, Детский сад, Бюджетное, Юго-Западное окружное управление образования," 117623, г.Москва, улица 1-ая Мелитопольская, дом 5 А",55.5393158,37.5778141,(495) 712-71-11, detsad1796@mail.ru
 Государственное бюджетное образовательное учреждение города Москвы детский сад комбинированного вида № 1540, ГБОУ детский сад № 1540,1 540, Дошкольное образовательное учреждение, Детский сад комбинированного вида, Бюджетное, Восточное окружное управление образования," 111395, г. Москва, ул. Молдагуловой, д.10Б",55.7255206,37.8056193,(499) 374-51-59, vesnyshki@bk.ru
 Государственное бюджетное образовательное учреждение города Москвы детский сад № 2194, ГБОУ детский сад № 2194,2 194, Дошкольное образовательное учреждение, Детский сад, Бюджетное, Южное окружное управление образования," 117556 г. Москва,Варшавское ш. д.86,к.2",55.6504816,37.6175731,(499) 619-59-59, dou2194@sinergi.ru
 Государственное бюджетное образовательное учреждение города Москвы детский сад № 2629, ГБОУ детский сад № 2629,2 629, Дошкольное образовательное учреждение, Детский сад, Бюджетное, Южное окружное управление образования," 117639 г. Москва, Варшавское ш., д. 106, к. 1",55.64354969999999,37.6173277,(499) 794-45-36, dou2629@sinergi.ru; detsad2629@yandex.ru
 Государственное бюджетное образовательное учреждение города Москвы детский сад комбинированного вида № 143, ГБОУ детский сад № 143,143, Дошкольное образовательное учреждение, Детский сад комбинированного вида, Бюджетное, Восточное окружное управление образования," 107370, г. Москва, Открытое шоссе, д.3",55.81215950000001,37.7304719,(499) 160-02-97, detsadvao143@yandex.ru
 Государственное бюджетное образовательное учреждение города Москвы детский сад комбинированного вида № 2379, ГБОУ детский сад № 2379,2 379, Дошкольное образовательное учреждение, Детский сад комбинированного вида, Бюджетное, Северо-Восточное окружное управление образования," 129346, г.Москва, ул. Норильская, д. 6, корпус 1",55.87799200000001,37.697648,(495) 474-29-04, doy2379@rambler.ru; doy2379@mail.ru
 Государственное бюджетное образовательное учреждение города Москвы детский сад комбинированного вида № 506, ГБОУ детский сад № 506,506, Дошкольное образовательное учреждение, Детский сад комбинированного вида, Бюджетное, Западное окружное управление образования," 121353, г.Москва, Сколковское шоссе, д. 12",55.7093711,37.4004189,(495) 446-33-35, goy1303@yandex.ru
 Государственное бюджетное образовательное учреждение города Москвы детский сад № 2542, ГБОУ д/с № 2542,2 542, Дошкольное образовательное учреждение, Детский сад, Бюджетное, Юго-Восточное окружное управление образования," 109125, Москва, улица Окская, дом 5, корпус 2",55.714146,37.7559441,(495) 225-66-92, DOU2542@mail.ru
 Государственное бюджетное образовательное учреждение города Москвы детский сад общеразвивающего вида № 672, ГБОУ детский сад № 672,672, Дошкольное образовательное учреждение, Детский сад общеразвивающего вида с приоритетным осуществлением деятельности по одному из направлений развития детей, Бюджетное, Западное окружное управление образования," 119501, г.Москва, ул. Матвеевская, д. 4, корп. 4",55.705652,37.47233,(495) 441-01-20, dou672@mail.ru
 Государственное бюджетное образовательное учреждение города Москвы детский сад № 2681, ГБОУ детский сад № 2681,2 681, Дошкольное образовательное учреждение, Детский сад, Бюджетное, Юго-Западное окружное управление образования," 117624, г.Москва, ул.Изюмская, д.55",55.5443206,37.5633021,(499)793-90-54, dou2681@mosuzedu.ru
 Государственное бюджетное образовательное учреждение города Москвы детский сад № 2604, ГБОУ детский сад № 2604,2 604, Дошкольное образовательное учреждение, Детский сад, Бюджетное, Западное окружное управление образования," 119618, г.Москва, ул. Главмосстроя, д. 9, корп. 2",55.65471239999999,37.4049719,(499) 792-47-72, dou2604@mail.ru
 Государственное бюджетное образовательное учреждение города Москвы детский сад № 1359, ГБОУ детский сад № 1359,1 359, Дошкольное образовательное учреждение, Детский сад, Бюджетное, Центральное окружное управление образования," 119146 г. Москва, ул. 3-ья Фрунзенская, д. 3",55.7199415,37.5789016,(499) 242-01-89, samimarina@yandex.ru
 Государственное бюджетное образовательное учреждение города Москвы детский сад № 1684, ГБОУ Детский сад № 1684,1 684, Дошкольное образовательное учреждение, Детский сад, Бюджетное, Северное окружное управление образования," 125040, г. Москва, 3-я улица Ямского поля, д. 17А",55.78268,37.577527,(495) 614-20-11, Pominovaii@mail.ru; ds1684@mail.ru
" Государственное бюджетное образовательное учреждение города Москвы центр развития ребенка - детский сад № 2695 ""Радость"""," ГБОУ ЦРР - детский сад № 2695 ""Радость""",2 695, Дошкольное образовательное учреждение, Центр развития ребенка – детский сад, Бюджетное, Юго-Западное окружное управление образования," 117209, г.Москва, Перекопская улица, дом 24А",55.66196009999999,37.5733283,8(495)331-76-11, center2695@mosuzedu.ru
 Государственное бюджетное образовательное учреждение города Москвы детский сад компенсирующего вида № 2340, ГБОУ детский сад № 2340,2 340, Дошкольное образовательное учреждение, Детский сад компенсирующего вида, Бюджетное, Восточное окружное управление образования," 111673, г. Москва, ул. Салтыковская, д. 5Б",55.7336549,37.8596888,(495) 702-80-30, ds2340@rambler.ru; dsad2340@gmail.com; ibmoleva@gmail.com
 Государственное бюджетное образовательное учреждение города Москвы детский сад комбинированного вида № 819, ГБОУ детский сад № 819,819, Дошкольное образовательное учреждение, Детский сад комбинированного вида, Бюджетное, Западное окружное управление образования," 119501, г.Москва, ул. Веерная, д. 34, корп. 3",55.711385,37.48404,(495) 441-93-91, www.dou819@yandex.ru
 Государственное бюджетное образовательное учреждение города Москвы центр развития ребенка - детский сад № 1678, ГБОУ ЦРР - детский сад № 1678,1 678, Дошкольное образовательное учреждение, Центр развития ребенка – детский сад, Бюджетное, Центральное окружное управление образования," 129090 г. Москва, пер. Васнецова, д.2",55.7760009,37.6257569,(495) 684-77-17, detsad1678@gmail.com
 Государственное бюджетное образовательное учреждение города Москвы детский сад № 2419, ГБОУ детский сад № 2419,2 419, Дошкольное образовательное учреждение, Детский сад, Бюджетное, Восточное окружное управление образования," 111558, город Москва Федеративный просп., д. 21 корп.2",55.75555199999999,37.8166266,(495) 303-06-19, detsad2419@mail.ru
 Государственное бюджетное образовательное учреждение города Москвы детский сад № 2587, ГБОУ детский сад № 2587,2 587, Дошкольное образовательное учреждение, Детский сад, Бюджетное, Юго-Западное окружное управление образования," 117623, г. Москва, улица Старонародная, дом 2, корпус 1",55.540901,37.5755505,(495) 712-53-72, dou2587@mosuzedu.ru
 Государственное бюджетное образовательное учреждение города Москвы детский сад № 67, ГБОУ детский сад № 67, 67, Дошкольное образовательное учреждение, Детский сад, Бюджетное, Северное окружное управление образования," 125167, г. Москва, улица Острякова, дом 6",55.79998879999999,37.5266467,(499) 157-35-92, gouds67@mail.ru
 Государственное бюджетное образовательное учреждение города Москвы детский сад № 1040, ГБОУ детский сад № 1040,1 040, Дошкольное образовательное учреждение, Детский сад, Бюджетное, Восточное окружное управление образования," 107150, г. Москва, ул. Ивантеевская, дом 1А",55.8227781,37.7171695,(499) 160-29-80, krasota1040@mail.ru
 Государственное бюджетное образовательное учреждение города Москвы детский сад комбинированного вида № 1975, ГБОУ детский сад № 1975,1 975, Дошкольное образовательное учреждение, Детский сад комбинированного вида, Бюджетное, Центральное окружное управление образования," 105094 г. Москва, ул. Гольяновская, д. 7, стр.6",55.77648000000001,37.7103851,(495) 360-83-98, dc1975cou@mail.ru; dc1975@yandex.ru
 Государственное бюджетное образовательное учреждение города Москвы детский сад комбинированного вида № 894, ГБОУ детский сад № 894,894, Дошкольное образовательное учреждение, Детский сад комбинированного вида, Бюджетное, Южное окружное управление образования," 115404 г. Москва,Ряжская ул.,д.9",55.5911883,37.6664486,(495) 326-02-01, dou894@sinergi.ru; dou894@mail.ru
 Государственное бюджетное образовательное учреждение города Москвы детский сад № 176, ГБОУ детский сад № 176,176, Дошкольное образовательное учреждение, Детский сад, Бюджетное, Юго-Восточное окружное управление образования," 109378, г. Москва, ул. Шумилова, дом 2, к. 2",55.7083878,37.770066,(499) 175-83-43, dc176@mail.ru
 Государственное бюджетное образовательное учреждение города Москвы детский сад компенсирующего вида № 372, ГБОУ детский сад № 372,372, Дошкольное образовательное учреждение, Детский сад компенсирующего вида, Бюджетное, Северо-Восточное окружное управление образования," 127576 город Москва, улица Череповецкая, дом 6а",55.8971123,37.5667411,(499) 908-67-90, goy_ds1059@mail.ru
 Государственное бюджетное образовательное учреждение города Москвы детский сад комбинированного вида № 1132, ГБОУ детский сад № 1132,1 132, Дошкольное образовательное учреждение, Детский сад комбинированного вида, Бюджетное, Северо-Восточное окружное управление образования," 129075, город Москва, улица Аргуновская, дом 12, корпус 3",55.81769749999999,37.6239047,(495) 615-64-24, sad_1132@mail.ru
 Государственное бюджетное образовательное учреждение города Москвы детский сад комбинированного вида № 693, ГБОУ детский сад № 693,693, Дошкольное образовательное учреждение, Детский сад комбинированного вида, Бюджетное, Юго-Западное окружное управление образования," 117393, г.Москва, ул. Гарибальди, дом 14, корп.3",55.673245,37.5391003,(499) 132-15-31, gou1609@mosuzedu.ru
 Государственное бюджетное образовательное учреждение города Москвы детский сад комбинированного вида № 1757, ГБОУ детский сад № 1757,1 757, Дошкольное образовательное учреждение, Детский сад комбинированного вида, Бюджетное, Западное окружное управление образования," 119633, г.Москва, ул. Приречная, д. 9, корп. 1",55.6453555,37.3689395,(495) 731-44-55, sad1757@yandex.ru
